operating_name,legal_name,ukprn,urn,provider_code,accredited_provider_number,provider_type,address1,address2,address3,address4,town,postcode,latitude,longitude,academic_year_code
2Schools Consortium,,10045988,,T92,5606,scitt,Oakthorpe Primary School,c/o Tile Kiln Lane,,London,Palmers Green,N13 6BY,51.6139603,-0.0927213,2025
3 - 18 Inspiring Futures,,10059785,138216,1Q6,,school,The Priory School,Longden Road,,Shropshire,Shrewsbury,SY3 9EE,52.696061,-2.767875,2025
AA Teamworks West Yorkshire SCITT,,10032342,,2AT,5697,scitt,West Vale Primary School," Stainland Road",Greetland,West Yorkshire,Halifax,HX4 8LS,53.68806439999999,-1.853286,2025
Abacus Belsize Primary School,,10042333,139837,4A2,,school,105 Camley Street,Jubilee Waterside Centre,,,London,N1C 4PF,51.538526,-0.1312587,2025
Academy Transformation Trust,,10042700,139937,7D7,,school,"Unit 4, Second Floor",Emmanuel Court,Reddicroft,,Sutton Coldfield,B73 6AZ,52.5644921,-1.8233797,2025
Achieve with TELA,,10038162,138527,1R3,,school,"Station Road ","Broughton Astley ",,"Leicestershire ","Leicester ",LE9 6PT,52.5295183,-1.223531,2025
Acklam Grange School,,10067565,145774,2FD,,school,Lodore Grove,,,,Middlesbrough,TS5 8PB,54.5445099,-1.2654736,2025
Active Teacher Training,,10059514,138177,2KL,,school,Cromwell Community College,Wenny Road,,Cambridgeshire,Chatteris,PE16 6UU,52.4501005,0.0527753,2025
Ad Astra SCITT,,10060899,,3A8,,scitt,"Hartlepool Innovation Centre Venture Court ",Queens Meadow Business Park,,Durham,Hartlepool,TS25 5TG,54.6491042,-1.2333101,2025
Advance Learning Partnership,,10059549,137903,2AL,,school,Advance Learning Partnership," Whitworth Lane",,Durham,Spennymoor,DL16 7LN,54.69496419999999,-1.6148349,2025
Advance Teacher Training,,10059545,138084,D5D,,school,Tendring Education Centre,Jaywick Lane,,Essex,Clacton-on-Sea,CO16 8BE,51.7924156,1.1199361,2025
Agnus Dei Catholic Schools,,10006280,102787,2BD,,school,Boleyn Road,Forest Gate,,,London,E7 9QD,51.5388875,0.0245491,2025
AIM Alliance Schools,,10016231,134798,2FR,,school,Spur Road,,,London,Edgware,HA8 8DE,51.622868,-0.290082,2025
Aireborough Partnership,,10073040,107809,2JF,,school,Rawdon St. Peter's Primary School,Town Street,,Leeds,Rawdon,LS19 6PP,53.8500804,-1.6704895,2025
Aldridge Education,,10058195,,7A1,,scitt,Duke's Aldridge Academy,Trulock Road,,,London,N17 0PG,51.5219746,-0.0872641,2025
Aletheia Academies Trust,,10059352,137609,2T4,,scitt,Saint George's C of E School,Meadow Road,,Kent,Gravesend,DA11 7LS,51.4279527,0.3608746,2025
Alliance of Bristol Catholic Schools (ABCs),,10035687,137627,7A3,,school,St Bede's Catholic College,Long Cross,Lawrence Weston,,Bristol,BS11 0SU,51.5050481,-2.6555542,2025
Alliance of Leading Learning,,10007848,136979,1HQ,,school,Morda Road,,,Shropshire,Oswestry,SY11 2AR,52.8529006,-3.0613679,2025
All Saints Catholic Academy Trust,,10059575,,5H5,,scitt,96 The Crescent,,,"Hertfordshire ",Abbots Langley,WD5 0DS,51.7078815,-0.4149106,2025
All Saints RC School,,10000225,149517,2KH,,school,All Saints Catholic School,Mill Mount Lane,,North Yorkshire,York,YO24 1BJ,53.9516618,-1.0946397,2025
Alpha Academies Trust,,10058303,136681,5A4,,scitt,"Discovery Drive ",,,Staffordshire,Stoke-on-Trent,ST2 0GA,53.007671,-2.1168606,2025
Ambition Teacher Training,,10095073,,2A2,5722,scitt,,,,,,,51.5347289,-0.1167082,2025
An Daras Trust,,10059966,140514,5D2,,scitt,Central Office. Unit 4 Tamar Business Park,Pennygillam Way,Pennygillam Industrial Estate,Cornwall,Launceston,PL15 7ED,50.6279648,-4.378458,2025
Anthem SCITT,,10058447,134003,6A3,,school,Highbridge House,16-18 Duke Street,,Berkshire,Reading,RG1 4RU,51.45453639999999,-0.9689015000000001,2025
Aquila,,10054668,142429,2CA,,school,Aquila,Diocese of Canterbury Academies Trust,,"Folkestone, Kent","Suites 19 & 20, Motis Business Park",CT19 4QJ,51.0902621,1.1220359,2025
Arbib Education Trust,,10058188,135631,7A2,,school,The Langley Academy,Langley Road,Langley,Berkshire,Slough,SL3 7EF,51.5041831,-0.5540959999999999,2025
Archbishop Blanch School,,10003957,104705,2KA,,school,Archbishop Blanch School,80 Earle Road,,Merseyside,Liverpool,L7 6HQ,53.3983709,-2.944065,2025
Archbishop Tenison's CE High School,,10000344,101811,2P9,,school,Selborne Road,,,Surrey,Croydon,CR0 5JQ,51.3692968,-0.08241359999999999,2025
Arden Alliance,,10031562,136333,2BU,,school,Arden Academy,Station Road,,West Midlands,Solihull,B93 0PT,52.3846284,-1.7389819,2025
ARK Teacher Training,,10044534,135600,1CS,5635,scitt,1 EdCity,EdCity Walk,,London,London,W12 7TF,51.5153584,-0.1193644,2025
Arthur Terry School,,10034759,138136,1QN,,school,Kittoe Road,Four Oaks,,West Midlands,Sutton Coldfield,B74 4RZ,52.5891903,-1.8356,2025
Arthur Terry SCITT,,10034759,,A67,5583,scitt,Kittoe Road,Sutton Coldfield,,West Midlands,Birmingham,B74 4RZ,52.5885202,-1.8357342,2025
Ascend Learning Trust,,10058663,144773,4A5,,scitt,"Lawn Manor School ",Salcombe Grove,,Berkshire,"Swindon ",SN3 1ER,51.55421330000001,-1.7623862,2025
Ashcroft Technology Academy,,10021078,135316,4E8,,school,100 West Hill,Putney,,,London,SW15 2UT,51.45651669999999,-0.2074102,2025
Ashdene Primary School,,10074366,111227,3A6,,school,Thoresway Road,,,,Wilmslow,SK9 6LJ,53.3174997,-2.2476417,2025
Ashfield School ITT,,10036962,137981,2L9,,school,Ashfield School,Sutton Road,,Nottinghamshire,Kirkby in Ashfield,NG178HP,53.1093302,-1.2691702,2025
Ashmole Academy (North London Teaching Alliance),,10031563,136308,1P2,,school,Ashmole Trust,"Cecil Road ",,,"London ",N14 5RJ,51.6301406,-0.1329183,2025
Ashton on Mersey School SCITT,,10055366,,24L,5638,scitt,Cecil Avenue,,,Cheshire,Sale,M33 5BP,53.4189389,-2.3394249,2025
Ashton Teacher Training Partnership,,10082366,146816,29O,,school,Ashton Sixth Form College,Darnton Road,,Greater Manchester,Ashton-under-Lyne,OL6 9RL,53.4915466,-2.0760181,2025
Aspirations Academies Trust,,10088769,000000,2O1,,school,World Business Centre,3 Newell Road,Heathrow Airport,,London,TW6 2TA,51.4803191,-0.440366,2025
Aspire Academy Trust,,10058372,136597,2HB,,school,Aspire Academy Trust,Unit 20,St Austell Business Park,Cornwall,St Austell,PL25 4FD,50.3592913,-4.7821058,2025
Aspire Basingstoke,,10054050,70241,28R,,school,Surrey South Farnham SCITT,Menin Way,,Surrey,Farnham,GU9 8DY,51.2097217,-0.7853597999999999,2025
Aspire Education Alliance,,10075063,101219,27K,,school,"Warren Junior School, Gordon Road",Chadwell Heath,,Essex,Romford,RM6 6DA,51.5762847,0.1423888,2025
Aspire Teacher Training,,10005790,140444,1XQ,,school,Ash Grove Academy,Belgrave Rd,,Cheshire,Macclesfield,SK117TF,53.2442747,-2.1324902,2025
ASSET Education,,10048992,141819,146,,school,St Helen's Primary School,Woodbridge Road,,Suffolk,Ipswich,IP4 2LT,52.0575208,1.1653579,2025
Associated Merseyside Partnership SCITT,,10055360,,25F,5670,scitt,Associated Merseyside Partnership SCITT,"Building 1000, Vortex Court, Enterprise Way",Wavertree Technology Park,Merseyside,Liverpool,L13 1FB,53.40413789999999,-2.9292959,2025
Aston Community Education Trust,,10005790,143141,17U,,school,East Avenue,Swinton,,South Yorkshire,Rotherham,S64 8JW,53.4833504,-1.3243822,2025
Astra Aylesbury Hub,,10032610,136884,2KM,,school,"Aylesbury Grammar School ",Walton Road,,Buckinghamshire,Aylesbury,HP21 7RP,51.8140588,-0.8013895,2025
Astra Aylesbury Primary Hub,,10032610,110356,5G5,,school,Ashmead Combined School,Cole Road,,"Buckinghamshire ",Aylesbury,HP21 8SU,51.8018133,-0.8200552999999999,2025
Astra SCITT,,10032610,,28E,5689,scitt,Dr Challoner's Grammar School,Chesham Rd,,Buckinghamshire,Amersham,HP6 5HA,51.6760251,-0.6095188,2025
Astrea Academy Trust,,10067898,,3A9,,scitt,The Quadrant,99 Parkway Avenue,,,Sheffield,S9 4WG,53.3823354,-1.427033,2025
ATT Partnership,,10042286,139867,2CZ,,school,Mildenhall Hub,Sheldrick Way,,Suffolk,Mildenhall,IP28 7JX.,52.3429375,0.4999919,2025
Authentic Education Training school,,10003614,137998,135,,school,Queen's Park Academy,East Way,,Dorset,Bournemouth,BH8 9PU,50.7477593,-1.8600495,2025
Avanti Schools Trust,,10058487,138227,4A3,,scitt,,,,,,,51.6084227,-0.3052924,2025
Avenue Primary Academy,,10053779,142177,1J3,,school,Avenue Road,Belmont,,Surrey,Sutton,SM2 6JE,51.3463601,-0.2041271,2025
Axbridge C of E First School Academy,,10058347,138763,3J9,,school,Moorland Street,,,Somerset,Axbridge,BS23 2UX,51.2857397,-2.8172187,2025
Balcarras Teaching School Hub,,10032991,136474,14B,,school,East End Road,Charlton Kings,,Gloucestershire,Cheltenham,GL53 8QF,51.8814114,-2.0436998,2025
Bannockburn Primary School,,10078056,100113,2E2,,school,Plumstead High Street,,,,London,SE18 1HE,51.4871738,0.0946181,2025
Barking Abbey SCITT,,10000527,,5B1,,scitt,Barking Abbey School,Sandringham Road,,Essex,Barking,IG11 9AG,51.5451139,0.1046919,2025
Barr Beacon School,,10034154,136885,1BB,,school,Old Hall Lane,,,,Walsall,WS9 0RF,52.561104,-1.915301,2025
Barr Beacon SCITT,,10053216,,2AX,5694,scitt,Barr Beacon SCITT,Old Hall Lane,,West Midlands,Walsall,WS9 0RF,52.561104,-1.915301,2025
Basingstoke Alliance SCITT,,10034865,10688,1KH,,school,Dove House School,Sutton Road,,Hampshire,Basingstoke,RG21 5SU,51.2748566,-1.088955,2025
Bath Spa University,,10000571,133790,B20,1502,hei,Sion Hill Campus,Sion Hill,,Bath and North East Somerset,Bath,BA1 5SF,51.39378929999999,-2.3711777,2025
BBL Teacher Training,,10067010,119301,4A7,,school,Fouldrey Avenue,,,Lancashire,Poulton-le-Fylde,FY6 7HE,53.8543705,-2.9815922,2025
BCCET Teacher Training Partnership,,10061060,138054,2B8,,scitt,Evolve Business Centre,Cygnet Way,,Sunderland,Houghton-le-Spring,DH4 5QY,54.8314208,-1.48266,2025
Beal High School (NELTA),,10046736,140575,1NA,,school,Beal High School,Woodford Bridge Road,,Essex,Ilford,IG45LP,51.5860169,0.0517167,2025
Beaulieu Park Primary School,,10092263,145916,3B2,,school,Essex and Thames SCITT Main Office,Witham Oaks Academy,Spa Road,East of England and North East London,Witham,CM8 1NA,51.8053477,0.6242546999999999,2025
Beckfoot Trust Teacher Training,,10059960,139975,1MU,,school,Wagon Lane,Bingley,,West Yorkshire,Bingley,BD16 1EE,53.8407624,-1.8276571,2025
BEC Teacher Training,,10058882,,B28,,scitt,c/o The Bromfords School,Grange Avenue,,Essex,Wickford,SS12 0LZ,51.6047131,0.5086671,2025
Bedford Free School,,10038073,138228,6T9,,school,Cauldwell Street,,,Bedfordshire,Bedford,MK42 9AD,52.1324534,-0.466876,2025
Bedgrove Infant School,,10078291,110282,1YP,,school,Ingram Avenue,,,,Aylesbury,HP21 9DJ,51.804702,-0.7804175,2025
Beech Hill,,10063983,144524,14G,,school,Linhope Road,West Denton,,Newcastle-upon-Tyne,Newcastle upon Tyne,NE5 2LW,54.9942919,-1.691837,2025
Bellevue Place SCITT,,10059611,139775,3V4,,scitt,"Rutherford House School ",217 Balham High Road,Balham,,London,SW177BS,51.4391069,-0.1556524,2025
Benfleet TSA (Teacher Training),,10033256,136579,1JH,,school,Croft Road,,,Essex,Benfleet,SS7 5RN,51.5638202,0.5522025,2025
Bengeworth Multi-Academy Trust,,10046169,140932,2JC,,school,Bengeworth Multi-Academy Trust,Kings Road,,Worcestershire,Evesham,WR11 3EU,52.0945363,-1.9331504,2025
Benton Dene School,,10077003,108655,18O,,school,Hailsham Avenue,,,Tyne and Wear,Longbenton,NE12 8fd,55.0197687,-1.5728151,2025
Berlesduna Academy Trust Teacher Training,,10057789,70094,2D6,,school,BEC Teacher Training,"c/o Bromfords School, Grange Avenue",,Essex,Wickford,SS12 0LZ,51.6048153,0.508637,2025
Best Practice Network,,10019464,,6B1,5733,scitt,Best Practice Network,"Newminster House ",,Bristol,27-29 Baldwin Street,BS1 1LT,51.4535048,-2.5950116,2025
Biddulph High School,,10035123,137356,14K,,school,Conway Road,Knypersley,,Stoke-on-Trent,Biddulph,ST8 7AR,53.1055184,-2.1693239,2025
Billericay School,,10034119,70094,1PT,,school,c/o The Bromfords School,Grange Avenue,,Essex,Wickford,SS12 0LZ,51.6047131,0.5086671,2025
Bingley Grammar Teacher Training,,10000697,107439,2BP,,school,Bingley Grammar School,Keighley Road,,West Yorkshire,Bingley,BD16 2RS,53.8559373,-1.8460862,2025
Birkenhead North Schools Partnership,,10074953,105086,2F7,,school,Our Lady & St Edward's Catholic Primary,Price Street,,Merseyside,Birkenhead,CH41 8DU,53.3997731,-3.0408229,2025
Birmingham City University,,10007140,133788,B25,1541,hei,15 Bartholomew Row,City Centre,,West Midlands,Birmingham,B5 5JU,52.4833468,-1.8847802,2025
Birmingham Newman University,,10007832,,N36,1523,hei,Genners Lane,Bartley Green,,West Midlands,Birmingham,B32 3NT,52.4329957,-1.9936128,2025
Bishop Challoner Catholic College,,10000722,,6K6,,hei,Institute Road,Kings Heath,,,Birmingham,B14 7EG,52.4330497,-1.8904939,2025
Bishop Challoner Training School,,10000722,103560,1K2,5723,scitt,Bishop Challoner Catholic College,Institute Road,,Birmingham,Kings Heath,B14 7EG,52.4336904,-1.8904837,2025
Bishop's Stortford Initial Teacher Training,,10059068,137156,13E,,school,Bishop's Stortford Initial Teacher Training (BSITT),Leventhorpe School,,Sawbridgeworth,Cambridge Road,CM21 9BY,51.8207909,0.1496041,2025
Bishop's Stortford SCITT,,10059068,,26T,,scitt,c/o Leventhorpe,Cambridge Road,,"Hertfordshire ",Sawbridgeworth,CM21 9BY,51.8207909,0.1496041,2025
Bishop Wheeler Catholic Academy Trust Professional Development Partnership (BWCAT Partnership),,10040645,139352,1QD,,school,St Mary's Teaching School,Broadgate Lane,,Leeds,Horsforth,LS18 5AB,53.8399245,-1.6320481,2025
Bitterne Park Teacher Training Alliance,,10014998,116458,1F6,,school,Bitterne Park School,Dimond Road,,Southampton,Bitterne Park,SO18 1BU,50.9301869,-1.369959,2025
Black Country Regional Training Hub - University of Worcester,,10007139,141712,2BC,,school,Black Country Regional Training Hub - University of Worcester,c/o Ridgewood High School,Park Road West,West Midlands,"Wollaston, Stourbridge",DY8 3NQ,52.4575648,-2.1739506,2025
Black Pear Teaching Alliance,,10060754,140933,2HC,,school,Black Pear Teaching Alliance,Hollymount School,,Worcester,Hollymount Road,WR4 9SG,52.2010953,-2.2002866,2025
Blackpool Sea View Trust ITT,,10043075,140143,1XH,,school,Park Community Academy,158 Whitegate Drive,,Lancashire,Blackpool,FY3 9HF,53.8120339,-3.0319069,2025
Blessed Christopher Wharton Catholic Academy Trust,,10087141,148256,13K,,school,Blessed Christopher Wharton Catholic Academy Trust,Ignis House,,West Yorksire,Bradford,BD9 4BQ,53.8577895,-1.9147095,2025
Blessed Thomas Holford Catholic College,,10015044,106376,1YR,,school,Urban Road,,,Cheshire,Altrincham,WA15 8HT,53.3870231,-2.3415212,2025
Bluecoat Academy,,10052837,70305,12W,,school,Bluecoat SCITT Alliance,Aspley Lane,,,Nottingham,NG8 5GY,52.969366,-1.1938169,2025
Bluecoat SCITT Alliance Nottingham,,10052837,,1YH,5646,scitt,Bluecoat SCITT Alliance Nottingham,"C/O Bluecoat Aspley Academy, Aspley Lane",,Nottinghamshire,Nottingham,NG8 5GY,52.9694319,-1.1938616,2025
Blue Kite Academy Trust,,10061050,142546,2HL,,school,Ferndale Primary and Nursery School,Wiltshire Avenue,,Wiltshire,Swindon,SN2 1NX,51.5721366,-1.7914131,2025
Blue Sky,,10007832,142205,21L,,school,Sacred Heart Primary School,Brays Lane,,,Coventry,CV2 4DW,52.4089477,-1.4805904,2025
BMAT Education,,10059426,,5B4,,scitt,Burnt Mill Academy,First Avenue,,Essex,Harlow,CM20 2NR,51.7764585,0.1071869,2025
Bohunt Education Trust,,10033361,136643,1DP,,school,Bohunt School,Longmoor Road,,Hampshire,Liphook,GU30 7NY,51.0783327,-0.8063705,2025
Bolton School,,10017185,105271,BS1,,school,Chorley New Road,,,Lancashire,Bolton,BL1 4PA,53.5788883,-2.4547185,2025
Bordesley Multi Academy Trust,,10059134,137167,5F5,,school,Easemore Road,,,,Redditch,B98 8HB,52.3109063,-1.9394666,2025
Bosco Sussex,,10063488,144243,1KY,,school,Elm Grove South,St Philip Howard Catholic School,,West Sussex,Barnham,PO22 0EN,50.833628,-0.6449543999999999,2025
Bosco with the University of Sussex,,10063488,144243,5B3,,school,Elm Grove South,St Philip Howard Catholic School,,West Sussex,Barnham,PO22 0EN,50.833628,-0.6449543999999999,2025
Bournemouth Bay Teacher Training Partnership,,10055369,,B52,5575,scitt,"Avon Campus, Twynham TGS",Redvers Road,,Dorset,Christchurch,BH23 3AU,50.7412083,-1.7558412,2025
Bradford Birth to 19 SCITT,,10047807,,259,5672,scitt,Bradford Birth to 19 SCITT,St Edmund's Nursery School,,Bradford,Washington Street,BD8 9QW,53.8024852,-1.7891691,2025
Bradford College,,10000840,,B60,,scitt,Great Horton Road,,,West Yorkshire,Bradford,BD7 1AY,53.7918437,-1.760373,2025
Bransgore Initial teacher Training (BITT),,10035668,137693,19F,,school,"Bransgore Primary, Ringwood Road",Bransgore,,Hampshire,Christchurch,BH23 8JH,50.7773411,-1.7299405,2025
Bridge Multi Academy Trust,,10059260,,J23,,scitt,21 Callywith Gate,,,Cornwall,Bodmin,PL31 2RQ,50.47885489999999,-4.702167,2025
Bridging the Tamar Learning Alliance,,10059114,137257,165,,school,School Road,Landrake,,Cornwall,Saltash,PL12 5EA,50.422763,-4.2877106,2025
Bright Futures SCITT,,10046414,,G65,5649,scitt,c/o AGGS The Lodge House,Cavendish Road,,Altrincham,Bowdon,WA14 2NJ,53.3811969,-2.359833,2025
Brighton Hove and Sussex Schools Alliance,,10007212,130668,1KN,,school,Varndean College,Surrenden Road,,East Sussex,Brighton,BN1 6WQ,50.8515319,-0.1434299,2025
"Brighton, Hove and Sussex Schools and Colleges Alliance with the University of Sussex",,10007212,130668,4B5,,school,Varndean College,Surrenden Road,,East Sussex,Brighton,BN1 6WQ,50.8515319,-0.1434299,2025
Brigshaw Learning Partnership,,10057632,143238,4B1,,school,,,,,,,53.7596329,-1.3778359,2025
Bristol Excalibur Academies Trust,,10059937,145398,6H5,,school,Blackmoors Lane,Bower Ashton,,,Bristol,BS3 2JL,51.4436422,-2.6319955,2025
Brockhill Park,,10035076,137458,19C,,school,Sandling Road,Saltwood,,Kent,Hythe,CT21 4HL,51.082965,1.066638,2025
Bromley Schools Collegiate,,10059069,,B91,5507,scitt,"Bromley Schools' Collegiate, Hayes Secondary School",West Common Road,,Kent,"Hayes, Bromley",BR2 7DB,51.3748957,0.0188496,2025
Bromley Schools' Collegiate School Direct,,10033362,136644,1C9,,school,Hayes Secondary School,West Common Road,,Kent,"Hayes, Bromley",BR2 7DB,51.3748957,0.0188496,2025
Bromsgrove Primary Partnership,,10080149,116665,2HU,,school,Bromsgrove Primary Partnership,St Catherine's Road,,Worcestershire,"Blackwell, Bromsgrove",B60 1BN,52.3510152,-2.0160356,2025
Bronte Academy Trust,,10061184,142948,7H7,,school,Tree Tops,Haworth Primary School,Rawdon Road,West Yorkshire,Bradford,BD22 8DW,53.832061,-1.954085,2025
Brunel University London,,10000961,,B84,,hei,Brunel University,Kingston Lane,,Middlesex,Uxbridge,UB8 3PH,51.5321389,-0.4727493,2025
Brunswick Park Alliance,,10071299,101264,267,,school,Brunswick Park Primary & Nursery School,Osidge Lane,,London,Southgate,N14 5DU,51.6304855,-0.147439,2025
BTSA (Accredited by the University of Derby),,10007851,136549,14D,,school,Sussex Place,Longton,,Staffordshire,Stoke-on-Trent,ST3 4TP,52.9769418,-2.1259597,2025
Buckingham Partnership,,10035071,,B71,5622,scitt,The Buckingham Partnership,The Royal Latin School,Chandos Road,Buckinghamshire,Buckingham,MK18 1AX,51.99404089999999,-0.988737,2025
Burnham Teaching Partnership,,10035483,137564,1MT,,school,Burnham Grammar School,Hogfair lane,,Slough,Burnham,SL17HG,51.5324409,-0.6536076,2025
Burnt Mill Academy,,10035847,137694,2GY,,school,Tendering Road,,,Essex,Harlow,CM186RN,51.7764585,0.1071869,2025
Cabot Learning Federation,,10049578,135959,4C1,,school,CLF Institute,Russell Town Avenue,Redfield,,Bristol,BS5 9JH,51.4593101,-2.5624489,2025
Calthorpe Park North East Hants and Surrey Borders Consortium,,10015239,116436,1UH,,school,Hitches Lane,,,Hampshire,Fleet,GU51 5JA,51.279803,-0.862486,2025
Cambridge Meridian Academies Trust & Swavesey Village College,,10033420,136580,2KU,,school,Gibraltar Lane,Swavesey,,Cambridgeshire,Cambridge,CB24 4RS,52.2947667,-0.0055253,2025
Cambridge Partnership,,10053421,,C03,5602,scitt,Meridian Trust - Swavesey Village College,"Gibraltar Lane, Swavesey",,Cambridgeshire,Cambridge,CB24 4RN,52.2947667,-0.0055253,2025
"Cambridge Training Schools Network, CTSN SCITT",,10055220,,1WO,5630,scitt,Comberton Village College,West Street,,Cambridgeshire,Comberton,CB23 7DU,52.205356,0.113168,2025
Campus Tees Schools Alliance,,10057507,143063,2JJ,,school,Campus Tees Schools Alliance,"C/O Egglescliffe School, ","Urlay Nook Road, Eaglescliffe",,Stockton on Tees,TS160LA,54.5163874,-1.3580929,2025
Canterbury Christ Church University,,10001143,133806,C10,1505,hei,North Holmes Road,,,Kent,Canterbury,CT1 1QU,51.277939,1.090659,2025
Cardinal Hume Catholic School,,10036181,137852,198,,school,Old Durham Road,,,Tyne & Wear,Gateshead,NE9 6RZ,54.9308872,-1.5771033,2025
Cardinal Newman ITT Hub,,10001165,,5E0,,scitt,"Cardinal Newman College ","Lark Hill Road ",,"Lancashire ","Preston ",PR1 4HD,53.7565001,-2.6899194,2025
Carlisle Schools Alliance,,10034763,137369,136,,school,Strand Road,,,Cumbria,Carlisle,CA1 1JB,54.8963402,-2.9308153,2025
Carlton Academy Trust Teacher Training,,10083491,147100,3E0,,school,Undercliffe Ln,,,West Yorkshire,Bradford,BD3 0DU,53.80171199999999,-1.7357759,2025
Carmel College,,10055116,137622,1KF,,school,Carmel College,The Headlands,,,Darlington,DL3 8RP,54.5244598,-1.585727,2025
Carmel Teacher Training Partnership (CTTP),,10055116,,C23,,scitt,Carmel College,The Headlands,,,Darlington,DL3 8RP,54.5244598,-1.585727,2025
Castle Hill School,,10054655,142420,4C4,,school,"Newsome Road, South",,,West Yorkshire,Huddersfield,HD4 6JL,53.624622,-1.78766,2025
Castleman Learning Network,,10046893,141184,1RP,,school,Castleman Learning Network,Arena Business Centre,Holyrood Close,Dorset,"Poole ",BH17 7FJ,50.7422243,-1.9943436,2025
Castle Newnham Partnership,,10007152,109661,29R,,school,Polhill Ave,,,Bedfordshire,Bedford,MK41 9DT,52.1459829,-0.4527374,2025
Castle Phoenix Alliance,,10040289,139292,179,,school,Axholme Road,Wyken,,West Midlands,Coventry,CV2 5BD,52.4144024,-1.4531241,2025
Castle View Enterprise Teaching Alliance,,10027530,135818,2FS,,school,Castle View Enterprise Academy,Cartwright Road,,Tyne and Wear,Sunderland,SR5 3DX,54.917799,-1.450058,2025
Cathedral Schools Trust,,10058233,135575,2HN,,school,St Katherine's School,Pill Road,,Bristol,Bristol,BS20 0HU,51.4736075,-2.6761122,2025
Catholic Schools' Partnership,,10038068,138961,134,,school,St Michael's Catholic College,Llewellyn Street,,London,Bermondsey,SE16 4UN,51.4995567,-0.0675067,2025
CAT Institute of Education,,10032964,136459,17B,,school,"The Polesworth School, Dordon Road",Polesworth,,Staffs,Tamworth,B78 1QT,52.6109428,-1.6194707,2025
Central Learning Partnership Trust,,10035949,137730,1VG,,school,Heath Park Scool,Prestwood Road,,West Midlands,Wolverhampton,WV11 1RD,52.6013719,-2.0995672,2025
Chauncy Training Partnership,,10034843,137090,1RK,,school,Chauncy School,Park Road,,Herts.,Ware,SG12 0DP,51.8147578,-0.0449656,2025
Chepping View Primary Academy,,10036917,137979,138,,school,Chepping View Primary Academy SCITT,Cressex Road,,Bucks,High Wycombe,HP12 4PR,51.615214,-0.7747284,2025
Chepping View Primary Academy SCITT,,10059665,,24S,5664,scitt,Chepping View Primary Academy SCITT,Cressex Road,,Bucks,High Wycombe,HP12 4PR,51.615214,-0.7747284,2025
Cheshire East SCITT,,10035146,,25Q,5680,scitt,Selkirk Drive,,,Cheshire,Holmes Chapel,CW4 7DX,53.197618,-2.367597,2025
Cheshire Leadership & Teaching Alliance,,10038606,138742,144,,school,Kelsall Primary School,Flat Lane,,Cheshire,Kelsall,WA16 9QG,53.2050365,-2.7164632,2025
Chester Diocesan Academies Trust,,10045107,147810,3C5,,school,Church House 5500,Daresbury Park,,Warrington,Daresbury,WA4 4GE,53.3312763,-2.6436804,2025
Chichester High School,,10043063,126063,2GC,,school,c/o The Kemnal Academies Trust,"The Atkins Centre, Kemnal Technology College, Sevenoaks Way",,Kent,Sidcup,DA14 5AA,51.4120189,0.1104716,2025
Chiltern Training Group,,10055370,,C59,5508,scitt,Company Secretary Chiltern Learning Trust c/o Denbigh High School,"Alexandra Avenue ",,Bedfordshire,Luton,LU3 1HE,51.8913483,-0.4240396,2025
Chorus Education Trust and Sheffield Teacher Training Alliance,,10039996,139167,1N5,,school,"Sheffield Teacher Training Alliance, Silverdale School",Bents Crescent,,South Yorkshire,Sheffield,S11 9QH,53.3509698,-1.5285331,2025
"Christ Church Primary School, Hampstead",,10074742,100028,1VM,,school,Christ Church Primary School,Christ Church Hill,,London,Hampstead,NW3 1JH,51.5596747,-0.1763079,2025
Chrysalis Multi Academy Trust,,10058610,136656,5C2,,school,Chrysalis Multi Academy Trust,Claremont Avenue,Kenton,Middlesex,Harrow,HA3 0UH,51.5856269,-0.2934051,2025
City of Liverpool College,,10003955,130487,L43,,school,Clarence Street,,,Merseyside,Liverpool,L3 5TP,53.40408069999999,-2.9725432,2025
City of London Academies Trust (COLAT) SCITT,,10058170,,4C3,,scitt,The City of London Academies Trust,"North Wing, Guildhall, PO BOX 270",Gresham Street,,London,EC2P 2EJ,51.5163393,-0.0918938,2025
Cleeve School,,10033702,136772,3B6,,school,"Cleeve School, Two Hedges Road, ",Bishops Cleeve,,Gloucs,Cheltenham,GL528AE,51.9414539,-2.0552792,2025
CMAT Stamford Welland Academy,,10035739,137600,9J1,,school,"Meridian Trust ITT, Swavesey Village College","Gibraltar Lane, Swavesey",,Cambridgeshire,Cambridge,CB24 4RS,52.2947667,-0.0055253,2025
CMAT West Town Primary,,10045926,140855,1DT,,school,The Cambridge Partnership,"Meridian Trust ITT Swavesey Village College, ","Gibraltar Lane, Swavesey",Cambridgeshire,Cambridge,CB24 4RS,52.2960266,-0.0051239,2025
Coastal Academies Trust,,10058585,,4C5,,scitt,Coastal Academies Trust,King Ethelbert School,Canterbury Road,Kent,Birchington,CT7 9BL,51.3773603,1.3222983,2025
Colchester Teacher Training Consortium,,10035498,137515,2DB,5509,scitt,Colchester Teacher Training,Colchester County High School,,Colchester,Norman Way,CO3 3US,51.8717756,0.8676611,2025
Colmore Partnership Training School Alliance,,10052836,103189,19Q,,school,Colmore Partnership Training School Alliance,Colmore Road,,Birmingham,Kings Heath,B14 6AJ,52.4275269,-1.8998453,2025
Compton SCITT,,10058414,,1X7,5644,scitt,The Compton School,Summers Lane,,London,North Finchley,N12 0QG,51.60925520000001,-0.1632865,2025
Congleton education Community Partnership,,10046166,140981,29W,,school,Longdown Road,,,Cheshire,Congleton,CW12 4QJ,53.1655922,-2.2467557,2025
ConnectEd Partnership,,10061610,143506,27U,,school,ConnectEd Partnership,Berrybrook Education and Business Suite,,Wolverhampton,Greenacres Avenue,VV10 8NZ,52.620267,-2.096061,2025
Connect Education Trust,,10057790,143201,189,,school,Chesterfield Road,Enfield,,London,London,EN3 6BG,51.6704853,-0.0316672,2025
Consortium Multi Academy Trust,,10061190,145795,2J7,,school,"The Consortium Academy trust  ","Helmingham School House ","School Road "," Suffolk "," Helmingham ",IP14 6EX,52.1861383,1.205448,2025
Co-op Academies Trust,,10030216,136102,2X4,,school,1 Angel Square,,,Greater Manchester,Manchester,M60 0AG,53.4878205,-2.2372221,2025
Cornwall Education Learning Trust (CELT),,10055139,147442,4C8,,school,Atlantic Centre,Trenance Park,Newquay,Cornwall,Truro,TR7 2LZ,50.408798,-5.0664452,2025
Cornwall School Centred Initial Teacher Training. (Cornwall SCITT),,10007063,,C79,5511,scitt,Truro College,College Road,,Cornwall,Truro,TR1 3XX,50.2630357,-5.1006316,2025
Cotswold Edge Teaching Alliance,,10034599,137123,26P,,school,Marling School,Cainscross Road,,Gloucestershire,Stroud,GL5 4HE,51.7460977,-2.2359216,2025
Court Moor Partnership,,10015454,116412,2J8,,school,Court Moor Partnership,Spring Woods,,Hampshire,Fleet,GU52 7RY,51.2706387,-0.8455292,2025
Coventry and Central Warwickshire Teaching School Hub,,10047140,141277,1GH,,school,Coventry and Central Warwickshire Teaching School Hub,Lawrence Sheriff School,Clifton Road,Warwickshire,Rugby,CV21 3AG,52.3709915,-1.2551402,2025
Cranford Community College,,10033241,136522,265,,school,Cranford Community College,High Street,,London,Hounslow,TW5 9PD,51.4867547,-0.4061468,2025
Creative Education Trust,,10042706,139961,5A1,,school,Wrenn School,London Road,,Northamptonshire,Wellingborough,NN8 2DQ,52.2964251,-0.6887894999999999,2025
CREC Early Years Partnership,,10033424,,25R,,scitt,Amber Publications & Training Ltd t/a CREC,"St. Thomas Children's Centre, Bell Barn Road",,West Midlands,BIRMINGHAM,B15 2AF,52.4693905,-1.9063258,2025
CTSN@Essex Primary SCITT,,10055220,70249,4E6,,school,Comberton Village College,West Street,,Cambridgeshire,Chelmsford,CB23 7DU,52.1867046,0.0155202,2025
Culcheth Campus,,10001791,111430,4F5,,school,Culcheth High School,Warrington Road,,Cheshire,Culcheth,WA3 5HH,53.455496,-2.507168,2025
Cumbria Education Trust,,10049508,141995,3Q2,,school,Longtown Road,,,Cumbria,Brampton,CA81AR,54.9443454,-2.7419639,2025
Cumbria Primary Teacher Training,,10048041,,C97,,scitt,Islay Place,Workington,,Cumbria,Cumbria,CA14 3XB,54.6363694,-3.5536677,2025
Dacorum Schools Alliance,,10007147,138352,1HS,,school,Mortimer Hill,,,Herts,Tring,HP235JD,51.798029,-0.654629,2025
Danes Educational Trust,,10058906,136901,3D3,,school,St Clement Danes School,Chenies Road,,Hertfordshire,Chorleywood,WD3 6EW,51.6641948,-0.513469,2025
Darlington West Park Partnership,,10033825,137042,1DB,,school,Alderman Leach Drive,,,Durham,Darlington,DL2 2GF,54.5465211,-1.586284,2025
Dartford Grammar School,,10032228,136359,29N,,school,Dartford Grammar School,West Hill,,Kent,Dartford,DA1 2HW,51.4442133,0.2050778,2025
David Ross Education Trust,,10004113,,3FE,,scitt,Loughborough University,,,,Loughborough,LE11 3TU,52.7695456,-1.2410855,2025
Debden Park High School,,10033412,131876,2AP,,school,Debden Park High School,"c/o The Kemnal Academies Trust (TKAT), The Atkins Centre, Kemnal Technology College",,Kent,Sidcup,DA14 5AA,51.4120189,0.1104716,2025
De Montfort University,,10001883,,D73,,hei,Division of Education,Portland Building,De Monfort University,Leicestershire,Leicester,LE1 9BH,52.6368778,-1.1397592,2025
Denbigh High School,,10032194,136319,1D2,,school,,,,,,,51.8914015,-0.4252473,2025
Devonport High School for Boys,,10033019,136496,2LB,,school,Devonport High School for Boys,Paradise Road,,Devon,Plymouth,PL1 5QP,50.3740359,-4.16228,2025
Deyes High School,,10035012,137533,1CD,,school,The Associated Merseyside Partnership SCITT,"Enterprise Way, Wavertree Technology Park",,Merseyside,Liverpool,L13 1FB,53.5131069,-2.9393576,2025
Diocese of Leeds BKCAT Alliance,,10006270,108297,1ZX,,school,Cutsyke Road,,,West Yorkshire,Featherstone,WF7 6BD,53.6982201,-1.3636907,2025
Diocese of Westminster Academy Trust,,10059577,137895,2W5,,school,Waxwell House,125 Waxwell Lane,,London,Pinner,HA5 3EP,51.6021821,-0.3869991,2025
Diocese of Worcester Multi Academy Trust,,10064288,149476,6H6,,school,"St Barnabas First and Middle CE Primary School ",Stonebow Road,Drakes Broughton,Worcestershire,Pershore,WR10 2AW,52.1979598,-2.2218919,2025
Diverse Academies Trust,,10034870,137319,12K,,school,Tuxford Academy,Marnham Road,,Nottinghamshire,Tuxford,NG22 0JH,53.3183403,-0.9594600999999999,2025
Dixons Academies Trust,,10001992,130909,1EP,,school,,Ripley Street,,West Yorkshire,Bradford,BD5 7RR,53.7808667,-1.7571813,2025
Doncaster ITT Partnership,,10002008,,D51,,scitt,Doncaster Council,"Civic Office, Waterdale",,South Yorkshire,Doncaster,DN1 3BU,53.5205744,-1.1305707,2025
"Dover, Deal and Sandwich Partnership",,10032210,136317,1CG,,school,Sandwich Technology School,,,Kent,Sandwich,CT13 0FA,51.2650099,1.335115,2025
drb Ignite Multi Academy Trust,,10060889,,5D3,,scitt,3 Brindleyplace,,,West Midlands,Birmingham,B1 2JB,52.4782918,-1.91332,2025
Dudley Academies Trust SCITT,,10066093,,4D1,,scitt,The Drawbridge,Unit 2,"Castle Court, Castlegate Way",West Midlands,Dudley,DY1 4RD,52.5148692,-2.0730187,2025
Dulwich College,,10015447,100861,3D1,,school,Dulwich Common,,,,"London ",SE21 7LD,51.438894,-0.0855492,2025
Dunmow Excellence in Education Partnership (DEEP),,10073673,115266,C56,,school,Rodings Primary School,Dunmow Road,Leaden Roding,Essex,Dunmow,CM6 1PZ,51.7987954,0.3092127,2025
Durham Johnston Comprehensive School,,10002066,114312,4D3,,scitt,Durham Johnston Comprehensive School,Crossgate Moor,,,Durham,DH1 4SU,54.7798831,-1.5968853,2025
Durham Schools Together,,10072165,114080,2DP,,school,Cornforth Lane,Coxhoe,,Durham,Durham,DH6 4EJ,54.7108578,-1.5096263,2025
Durham SCITT,,10067657,,D87,5573,scitt,The Work Place,Heighington Lane,,Co Durham,Newton Aycliffe,DL5 6AH,54.596066,-1.5756916,2025
Durham St Margaret's,,10073790,114230,2FF,,school,St. Margaret's CE Primary School,Crossgate Peth,,Durham,Durham,DH1 4QB,54.7723863,-1.5887429,2025
Durham University,,10007143,,D86,,hei,School of Education,Confluence Building,Stockton Road,County Durham,Durham,DH1 3LE,54.7676688,-1.5708193,2025
E-ACT Academies Trust,,10028140,135907,1Z1,,school,Gt Francis Street,Nechells,,West Midlands,Birmingham,B7 4QR,52.487964,-1.8742774,2025
Eastbourne Area School District Alliance,,10015514,114592,1J5,,school,Willingdon Community School,Lower Willingdon,,East Sussex,Eastbourne,BN20 9QX,50.8113926,0.2415245,2025
Eastbourne Area School District Alliance with the University of Sussex,,10015514,114592,3R2,,school,Willingdon Community School,Lower Willingdon,,East Sussex,Eastbourne,BN20 9QX,50.8113926,0.2415245,2025
East Herts Partnership,,10035495,137532,1VT,,school,Goffs Academy,Goffs Lane,,Waltham Cross,Cheshunt,EN7 5QW,51.7062891,-0.0575556,2025
East Midlands Teacher Training Partnership,,10055367,,E31,5614,scitt,The West Bridgford School,Loughborough Road,,Nottingham,West Bridgford,NG2 7FA,52.9191327,-1.1392074,2025
East of England Teacher Training,,10052840,,2B6,,scitt,East of England Teacher Training C/O Hartsholme Academy,Carrington Drive,,Lincolnshire,Lincoln,LN6 0DE,53.212893,-0.5797059,2025
East One Partnership,,10078399,107249,E1P,,school,"Fagley Primary School ",Falsgrave Avenue,,West Yorkshire,Bradford,BD2 3PU,53.8100063,-1.7179656,2025
EAST SCITT,,10058884,,3C6,5720,scitt,EAST SCITT,C/O Kesgrave High School,,Suffolk,"Main Road, Kesgrave, Ipswich",IP5 2PB,52.0671156,1.2446134,2025
Eastwood Park Academy Trust,,10034832,137284,2G1,,school,Rayleigh Road,,,Essex,Leigh-on-Sea,SS9 5UU,51.5646462,0.6625758,2025
Eatock Lead Partner,,10070107,105202,2GV,,school,St George's Avenue,Westhoughton,,Lancashire,Bolton,BL5 2ER,53.53954599999999,-2.526981,2025
Eden Academy Trust,,10060479,,5E1,,scitt,Eden Academy Trust,Hub 2 - The Innovation Centre,Queens Meadow Business Park,County Durham,Hartlepool,TS25 5TG,54.64903899999999,-1.2336125,2025
Eden Learning Trust,,10067657,138717,2LW,,school,Eden Learning Trust c/o Ferryhill Business and Enterprise College,Merrington Rd,,County Durham,"Ferryhill ",DL17 8RW,54.6841746,-1.5756336,2025
Edge Hill University,,10007823,133828,E42,1510,hei,Edge Hill University,St Helens Road,,Lancashire,Ormskirk,L39 4QP,53.5596255,-2.8738368,2025
Educate Group Initial Teacher Training,,10035411,,E65,5587,scitt,"1st Floor, Aldford House","Bell Meadow Business Park, Park Lane",,Cheshire,Chester,CH4 9EP,53.1368672,-2.921166,2025
Eleanor Palmer Primary School,,10078057,100027,14F,,school,Eleanor Palmer Primary School,Lupton Street,,,London,NW5 2JA,51.55479649999999,-0.138858,2025
Elston Hall Learning Trust,,10061031,142349,2JA,,school,Elston Hall Primary School,"Stafford Road, Fordhouses",,West Midlands,Wolverhampton,WV10 6NN,52.6231263,-2.1269889,2025
Embrace SCITT,,10062373,,4E5,5731,scitt,C/o Sea View Trust & Tor View School,Clod Lane,,Lancashire,Haslingden,BB4 6LR,53.69148029999999,-2.3117987,2025
Embrace SCITT @ Endeavour Learning Trust,,10059445,,M70,,scitt,Tarleton Academy,"Hesketh Lane, Tarleton",,Lancashire,Preston,PR4 6AQ,53.685344,-2.8311858,2025
Embrace SCITT @ LET Education Trust,,10060518,,P38,,scitt,The Hollins,Hollins Lane,,Other,Accrington,BB5 2QY,53.7384225,-2.3540058,2025
Embrace SCITT @ Rowan Learning Trust,,10059724,138110,3R5,,school,Rowan Learning Trust,18 Beecham Court,Goose Green,,Wigan,WN3 6PR,53.5290265,-2.6593619,2025
Emmaus CAT ITT,,10086423,133826,4E7,,school,Jackson House,Sibson Road,Sale,,Manchester,M33 7RR,53.4237464,-2.3262155,2025
Endeavour Multi Academy Trust,,10058938,146727,6E1,,scitt,"Two Rivers High School, Torc Site",Silverlink Road,Glascote,Staffordshire,Tamworth,B77 2HJ,52.61429529999999,-1.6851277,2025
Enhance Academy Trust SCITT,,10036918,137967,3E6,,scitt,Enhance Academy Trust,"Unit 7 The Office Campus, Paragon Business Park",Red Hall Court,West Yorkshire,Wakefield,WF12UY,53.6993272,-1.5106071,2025
e-Qualitas,,10046623,,E69,5585,scitt,11a Burford Road,,,,London,E15 2ST,51.5374756,-0.0005086,2025
EQUA Mead Futures,,10058424,,2Q4,,scitt,Lavington School,"The Spring ",,"Wiltshire ","Market Lavington ",SN10 4EB,51.2862884,-1.9898347,2025
Esk Valley Alliance,,12345678,121610,1XT,,school,Egton,,,North Yorkshire,Whitby,YO21 1UT,54.4414441,-0.7537568,2025
Essex and Thames SCITT,,10034267,,T25,5543,scitt,Witham Oaks Academy,Spa Road,,Essex,"Witham, Essex",CM8 1NA,51.8053477,0.6242546999999999,2025
Essex Schools ITT,,10035578,70275,1OS,,school,Essex Schools ITT,Chester Road,,Essex,Loughton,IG10 2LD,51.6568052,0.0762872,2025
Essex Teacher Training,,10002327,,E75,5593,scitt,ACL Harlow,Partridge Road,,Essex,Harlow,CM18 6TE,51.757474,0.097486,2025
ETT@Northern Education Trust (NET),,10055739,147541,1UR,,school,Main Road,,,Gateshead,Ryton,NE40 3AH,54.9719582,-1.7733501,2025
ETT@Tykes Teaching Alliance,,10043460,140242,2C3,,school,"Tykes, Unit 5, Great Cliffe Court ",Dodworth,,Barnsley,Barnsley,S75 3SP,53.54775429999999,-1.5300749,2025
Excalibur @ St John's,,10038597,138623,2BO,,school,St John's Marlborough,Granham Hill,,Wiltshire,Marlborough,SN8 4AX,51.4142785,-1.730024,2025
Exceed SCITT,,10064216,,2EY,5714,scitt,Exceed SCITT,Copthorne Primary School,All Saints Road,West Yorkshire,Bradford,BD7 3AY,53.7863435,-1.7727443,2025
Exceed Teaching School Hub,,10057431,143096,278,,school,Exceed SCITT and Teaching Schools,Harden Primary School,Long Lane,West Yorkshire,Harden,BD16 1LJ,53.8407749,-1.8719579,2025
Excelsior MAT,,10060213,146696,8F8,,school,Colmers Farm Primary School,Rubery,,,Birmingham,B45 9PB,52.397011,-2.0034877,2025
Exchange Teacher Training,,10055739,136343,1DU,5724,scitt,Education House,Spawd Bone Lane,,West Yorkshire,Knottingley,WF11 0EP,53.7046213,-1.244632,2025
Exeter College,,10002370,,4E4,,hei,Hele Road,,,Devon,Exeter,EX44JS,50.7283449,-3.5385612,2025
Exeter Consortium,,10063074,144072,1QX,,school,"c/o Countess Wear Community School ","Glasshouse Lane ",,Devon,Exeter,EX2 7BS,50.6960612,-3.4914559,2025
Exning Primary School,,10072937,124544,1JM,,school,Exning Primary School,Oxford St,,,Exning,CB8 7EW,52.2657368,0.3690021,2025
Extend Learning Academies Network (ELAN),,10065038,144918,2DT,,school,13 Lime Close,Locking,,North Somerset,Weston-super-Mare,BS24 8BH,51.3337735,-2.9105195,2025
EXTOL SCITT,,10060484,,5E2,,scitt,Extol Trust,Eldon Grove,,Teesside,Hartlepool,TS26 9LY,54.6794819,-1.2273236,2025
Fairfield Infant School,,10080422,124582,1VQ,,school,Fairfield Infant School,,,Suffolk,Felixstowe,IP11 9JB,51.9684029,1.3514546,2025
Fareham and Gosport Primary SCITT,,10048033,,25M,5681,scitt,Fareham and Gosport Primary SCITT,Harrison Primary School,,Fareham,Harrison Road,PO16 7EQ,50.8572125,-1.1799325,2025
Fenland Alliance,,10007152,110632,1XY,,school,High Street,Doddington,,Cambridgeshire,March,PE15 0TF,52.4968046,0.0633532,2025
FIPC (Hazelwood Schools),,10046090,101997,15T,,school,Forest Independent Primary Collegiate,,,,Palmers Green,N13 5HE,51.6184106,-0.1030617,2025
Five Counties SCITT,,10058211,,2AV,5695,scitt,CLF Institute,Russell Town Avenue,,Bristol,Redfield,BS5 9JH,51.4593101,-2.5624489,2025
Forest Independent Primary Collegiate SCITT,,10046090,,F82,,scitt,"Latton Green Primary Academy Site ","Riddings Lane ",,Essex,Harlow,CM18 7HT,51.7489233,0.1137553,2025
Forest Learning Alliance,,10068903,109847,1HW,,school,Uplands Primary School and Nursery,Albion Road,,Berkshire,Sandhurst,GU47 9BP,51.3479461,-0.7987065,2025
Forest Way Initial Teacher Training,,10036610,137905,1L8,,school,Forest Way Alliance,Warren Hills Road,,Leicestershire,Coalville,LE67 4UU,52.72917169999999,-1.3254923,2025
Forty Hill CofE Primary School,,10073980,102028,2L8,,school,Forty Hill,,,Middlesex,Enfield,EN2 9EY,51.6709673,-0.061056,2025
Forward Education Trust ITT,,10007166,144042,1MR,,school,Brays Road,Sheldon,,West Midlands,Birmingham,B26 1NS,52.4604462,-1.7870232,2025
Frank Field Education Trust Be More SCITT,,10081880,,4F3,,scitt,164 Whitby Road,,,Cheshire,Ellesmere Port,CH65 6EA,53.2772576,-2.9060924,2025
Futura Teacher Training,,10059285,137523,3F5,,school,"Futura Learning Partnership, c/o Wellsway School",Chandag Road,Keynsham,,Bristol,BS31 1PH,51.415059,-2.502526,2025
Futures Teaching,,10043454,140248,2KR,,scitt,President Kennedy School,Rookery Lane,,West Midlands,Coventry,CV6 4GL,52.4497526,-1.5206726,2025
Future Teacher Training,,10043978,,P58,5633,scitt,Pimlico Academy,Lupus Street,,,London,SW1V 3AT,51.48766550000001,-0.1363816,2025
Gateshead Schools Direct,,10090323,149052,1EW,,school,St Mary and St Thomas Aquinas,Stella Lane,,Tyne and Wear,Blaydon,NE214NE,54.9696712,-1.7335636,2025
Generate Teaching Hub,,10057459,143064,15R,,school,Generate Teaching Hub,"c/o Warrington Primary Academy Trust, Evelyn Street",,Cheshire,Warrington,WA5 1BD,53.3852865,-2.6172226,2025
Geoffrey Field Junior School,,10079852,109781,1QL,,school,"Geoffrey Field Junior School ","Exbourne Road ",,Berkshire,Reading,RG 2 8RH,51.4219373,-0.961783,2025
George Abbot SCITT,,10055368,,G12,,scitt,George Abbot School,Woodruff Avenue,,Surrey,Guildford,GU1 1XX,51.2524787,-0.5453282,2025
George Abbot SCITT School Direct,,10055368,136906,1OV,,school,George Abbot School,Woodruff Avenue,,Surrey,Guildford,GU1 1XX,51.2524787,-0.5453282,2025
George Spencer Academy SCITT,,10058352,,1HR,5595,scitt,George Spencer Academy,Arthur Mee Road,,Nottingham,Stapleford,NG9 7EW,52.9209512,-1.2676247,2025
Gladesmore Community School,,10002675,102157,1FW,,school,Gladesmore Community School,Crowland Road,,London,Tottenham,N15 6EB,51.5808229,-0.0660623,2025
Glenthorne High School,,10034150,136914,17J,,school,270 Sutton Common Road,,,Surrey,Sutton,SM3 9PS,51.38058789999999,-0.2004546,2025
GLF Teacher Training,,10053217,,2B4,,scitt,c/o Rosebery School,White Horse Drive,,Surrey,Epsom,KT18 7NQ,51.327886,-0.2779958,2025
Gloucestershire Initial Teacher Education Partnership (GITEP),,10034789,,G48,5518,scitt,The Balcarras Trust,,,Gloucestershire,Cheltenham,GL538QF,51.8525562,-2.0900104,2025
Godalming Learning Partnership,,10072769,125014,2JT,,school,"Sara Cox, Headteacher","Milford School ","Church Road, ",Surrey,"Milford, Godalming ",GU8 5JA,51.1700326,-0.6446447,2025
Golborne Trinity,,10015405,106525,A7D,,school,"Golborne High School, Lowton Road",,,Cheshire,Warrington,WA3 3EL,53.4804796,-2.5884695,2025
Goldington Academy,,10033281,136552,2DM,,school,Goldington Academy,Haylands Way,,Bedfordshire,Bedford,MK41 9BX,52.1447941,-0.4440558,2025
"Goldsmiths, University of London",,10002718,,G56,1511,hei,New Cross,,,London,Lewisham,SE14 6NW,51.474271,-0.035408,2025
"GORSE SCITT (Leeds, Bradford, Hull and East Yorkshire)",,10055363,,1N1,5658,scitt,GORSE SCITT,Leeds Mathematic School,105 Albion Street,West Yorkshire,Leeds,LS1 5AS,53.7992515,-1.5452098,2025
Greater Manchester ITT St Patrick's Centre of Educational Excellence,,10018025,105986,18A,,school,56 New Lane,"Eccles ",,Lancashire,Salford,M30 7JJ,53.48361190000001,-2.3668015,2025
Greenheart Primary Teacher Training,,10060124,139002,4G1,,scitt,Unit 7 Newlands Court,Attwood Road,,Staffordshire,Burntwood,WS7 3GF,52.6824711,-1.9516607,2025
Greenholm Primary School,,10038624,138693,19R,,school,Greenholm Primary School,Greenholm Road,,Birmingham,Great Barr,B44 8HS,52.5364428,-1.8926708,2025
Green Park Primary School,,10070130,104884,2F6,,school,Green Park Primary School,Green Lane,,,Maghull,L31 8BW,53.5190823,-2.9537835,2025
Greenwich Learning Partnership,,10006893,100190,185,,school,Kidbrooke Park Road,Kidbrooke,,London,London,SE3 9PX,51.4604251,0.0264937,2025
Greenwood Academies Trust,,10034998,137184,1EX,,school,Greenwood House,Private Road No 2,,Nottingham,Colwick Quays Business Park,NG4 2JY,52.9553883,-1.077356,2025
Grey Court Training School,,10039056,138825,22S,,school,Ham Street,Ham,,,Richmond upon Thames,TW10 7HN,51.4388657,-0.3121524,2025
Growing Expert Teachers,,10005959,139471,2AO,,school,Birdwell School Academy,Hollis Close,,North Somerset,Long Ashton,BS41 9AZ,51.4267165,-2.6618578,2025
Haberdashers' Academies Trust South,,10058159,135073,1KP,,school,Haberdashers' Academies Trust South,Jerningham Road,,London,New Cross,SE14 5NY,51.4672351,-0.0434286,2025
Hackney Teaching Schools' Alliance,,10078024,100250,1V9,,school,c/o Gayhurst Community School,,,London,Hackney,E8 3EN,51.5424825,-0.0627741,2025
Haggerston School,,10092729,149901,H76,,school,Weymouth Terrace,Hackney,,,London,E2 8LS,51.5320394,-0.0707191,2025
Hagley Catholic High School,,10047639,141414,7G8,,school,Brake Lane,,,Worcestershire,Hagley,DY82XL,52.4225527,-2.1476775,2025
Hales Valley Teaching Hub,,10061958,143821,18E,,school,Woodside Primary School,Highgate Road,,West Midlands,Dudley,DY2 0SN,52.4960573,-2.1078359,2025
Halstow Primary School,,10063110,143597,1V5,,school,Halstow Primary School,Halstow Road,,London,Greenwich,SE10 0LD,51.4849304,0.0156082,2025
Halterworth Training School Partnership,,10086663,148216,1A8,,school,Halterworth Lane,,,Hampshire,Romsey,SO51 9AD,50.9880608,-1.4705612,2025
Harris ITE,,10055126,,1WU,5623,scitt,Harris Initial Teacher Education,55 Southwark Park Road,,,"London ",SE16 3TZ,51.4933567,-0.0718341,2025
Hartismere School,,10031385,136271,1GP,,school,Castleton Way,,,Suffolk,Eye,IP23 7BL,52.323447,1.1369897,2025
Hastings and Rother Alliance,,10017797,114612,1L9,,school,Ashdown Road,,,East Sussex,Bexhill on Sea,TN40 1SE,50.8419669,0.48575,2025
Hastings and Rother Alliance with the University of Sussex,,10017797,114612,4H2,,school,Ashdown Road,,,East Sussex,Bexhill on Sea,TN40 1SE,50.8419669,0.48575,2025
Hatton Centre for Education,,10036614,137912,1Y7,,school,The Pyghtle,,,Northamptonshire,Wellingborough,NN8 4RB,52.3101181,-0.697031,2025
Havering Train2Teach,,10069441,132776,178,,school,Severn Drive,Cranham,,Essex,Upminster,RM14 1SW,51.5462421,0.2708525,2025
Haverstock School,,10002938,100049,4H3,,school,24 Haverstock Hill,Chalk Farm,,,London,NW3 2BQ,51.5451542,-0.1539639,2025
Haybridge SCITT,,10034167,,2B3,5701,scitt,Haybridge SCITT,Brake Lane,,,Hagley,DY8 2XS,52.42370640000001,-2.1499859,2025
HEART Academies Trust,,10058270,136085,5H2,,school,"Suite C Emerald Court  ",Pilgrims Centre,Brickhill Drive,,Bedford,MK41 7PZ,52.1497445,-0.4582957,2025
Henry Maynard Training E17,,10053211,,2AW,,scitt,Henry Maynard Primary Sch,Maynard Road,,London,Walthamstow,E17 9JE,51.5825522,-0.0078526,2025
Hereteach Alliance,,10062355,143929,22V,,school,Hereford Sixth Form College,Folly Lane,,Herefordshire,Hereford,HR1 1LU,52.0622748,-2.699173,2025
Heronsgate Primary School,,10078039,100158,1EE,,school,Heronsgate Primary School,Whinchat Road,,London,London,SE28 0EA,51.493498,0.083585,2025
High Force Education (SCITT),,10046049,,H38,,scitt,Green Lane CE Primary School,,,Durham,Barnard Castle,DL12 8LG,54.5459993,-1.9092276,2025
Hillingdon SCITT,,10059208,,2B5,,scitt,c/o Bishop Ramsey CE School,Hume Way,,Middlesex,Ruislip,HA4 8EE,51.5792096,-0.4080951,2025
HISP Teacher Training,,10033571,,1X9,,scitt,Thornden School,Winchester Road,,Hampshire,Chandlers Ford,SO53 2DW,50.9944946,-1.3630079,2025
Hitchin Boys' School,,10039989,139154,1QY,,school,Hitchin Boys' School,Grammar School Walk,,Herts,Hitchin,SG5 1JB,51.951198,-0.2785165,2025
Holy Cross Catholic Multi Academy Company,,10084072,147345,6J6,,school,Heathcote St,Radford,,,Coventry,CV6 3BL,52.42997039999999,-1.524372,2025
Holy Spirit MAC,,10048920,141836,S89,,school,St Thomas More School,Greenmoor Road,,Warwickshire,Nuneaton,CV11 4TH,52.5166212,-1.4784386,2025
Holy Trinity CofE Primary School,,10073971,102418,292,,school,Rickmansworth Road,,,Middlesex,Northwood,HA6 2RH,51.6141367,-0.4371912,2025
Hope Sentamu Learning Trust,,10058624,136544,1DH,,school,Hope Sentamu Learning Trust,Rawcliffe Drive,Clifton (Without),North Yorkshire,York,YO30 6ZS,53.9755492,-1.1003804,2025
Horizon Academy Trust Teacher Training,,10044816,117814,1OL,,school,"Spring Cottage Primary School, Dressay Grove",,,Kingston-upon-Hull,Hull,HU8 9JH,53.7803354,-0.2935256,2025
Huddersfield Horizon SCITT,,10058690,,2EX,5713,scitt,Huddersfield Horizon SCITT (South Pennine Academies),The Gateway,Lowfields Close,West Yorkshire,"Elland, Halifax",HX5 9DX,53.6917098,-1.8288964,2025
Hudson Primary School,,10069137,104869,2F5,,school,Hudson Primary School,Moorhey Road,,Liverpool,Maghull,L31 5LE,53.5008539,-2.9396096,2025
Hull SCITT,,10055359,,25O,,scitt,Hull SCITT,Dorchester Primary School,,Hull,Dorchester Road,HU7 6AH,53.7805228,-0.318031,2025
Hungerhill BFLPT,,10036542,137899,298,,school,Hungerhill Lane,Edenthorpe,,South Yorkshire,Doncaster,DN3 2JY,53.55148080000001,-1.0741717,2025
Hursthead Junior School Alliance,,10046173,140925,27X,,school,Kirkstead Road,,,Cheshire,Cheadle Hulme,SK8 7PZ,53.3614204,-2.18024,2025
i2i Teaching Partnership,,10058582,,24X,5657,scitt,Weydon School,Weydon Lane,,Surrey,Farnham,GU9 8UG,51.2023786,-0.8148865,2025
Ignite Institute,,10046195,140896,22A,,school,St Bernard's RC Primary School - A Voluntary Academy,,,Cheshire,Ellesmere Port,CH65 5EW,53.279812,-2.897404,2025
Ilkley All Saints' Teacher Training Partnership,,10068642,107309,2DX,,school,Easby Drive,,,West Yorkshire,Ilkley,LS29 9BE,53.9266118,-1.8351975,2025
Illuminate Minds Trust,,10040974,,8C4,,scitt,Pelham Primary School,Pelham Road,,Kent,Bexleyheath,DA7 4HL,51.4592108,0.1492235,2025
Inclusive Schools Trust,,10064197,144144,2JE,,school,"Inclusive Schools Trust ","c/o Lionwood Infant and Nursery School, Telegraph Lane East",,Norfolk,Norwich,NR1 4AN,52.6293397,1.3152351,2025
Infinity Academies Trust,,10060289,,C21,,scitt,Infinity Academies Trust,Woad Farm Road,,Lincolnshire,Boston,PE21 0EF,52.9742024,-0.0076167,2025
Initio Learning Trust,,10060921,141757,1I2,,scitt,Allenbourn Middle School,,,Dorset,Wimborne,BH21 1PL,50.80325180000001,-1.9861363,2025
Innovation Training and Recruitment,,10094417,104505,F56,,school,Innovation Training and Recruitment,Everton Nursery School and Family,Spencer Street,Merseyside,Liverpool,L6 2WF,53.4178042,-2.9648817,2025
Insignis Academy Trust SCITT,,10034108,136845,3I5,,scitt,Sir Henry Floyd Grammar School,PO Box 1128,,Buckinghamshire,Aylesbury,HP20 9NE,51.8133096,-0.8228694,2025
Inspire Education Trust,,10061026,143535,3I2,,school,Kingston Road,Earlsdon,,West Midlands,Coventry,CV5 6LR,52.40451299999999,-1.5319412,2025
Inspire Partnership Academy Trust,,10064647,,5I2,,scitt,Foxfield Primary School,Sandbach Place,,,London,SE18 7EX,51.5088356,-0.06932719999999999,2025
Inspiring Future Teachers,,10058640,,3Y3,5738,scitt,c/o HISP Multi Academy Trust,Winchester Road,,Hampshire,Chandlers Ford,SO53 2DW,50.9953445,-1.3633755,2025
Inspiring Leaders Primary (Derbyshire),,10088528,148428,5W1,,school,Alfreton Nursery School,Grange Street,,Derbyshire,Alfreton,DE55 7JA,53.093613,-1.388254,2025
Inspiring Leaders Primary (Leicester and Rutland),,10055365,,1BJ,,scitt,Discovery Schools Trust,NSPCC National Training Centre,,Leicestershire,Leicester,LE4 1EZ,52.6672413,-1.1643835,2025
Inspiring Leaders Primary (Nottingham and Mansfield),,10088528,,24H,,scitt,"Inspiring Leaders Teacher Training ","2a Vickery Way, ",,Nottingham,"Beeston, ",NG9 6RY,52.9559294,-1.1680787,2025
"Inspiring Leaders Secondary (Leicestershire, Rutland and Northampton)",,10088528,,4R4,,scitt,NSPCC National Training Centre,3 Gilmour Close,,,"Leicester ",LE4 1EZ,52.66705940000001,-1.1640999,2025
Inspiring Leaders Secondary (Nottingham and Derbyshire),,10088528,,2A5,,scitt,Central Services,William Lee Centre,Flatts Lane,Nottinghamshire,Calverton,NG14 6JZ,53.0424917,-1.0870203,2025
Inspiring Leaders - Teacher Training,,10088528,,3A1,5642,scitt,2a Vickery Way,Chilwell,,Nottinghamshire,Nottingham,NG9 6RY,52.9076957,-1.2474413,2025
Invictus Education Trust,,10060890,,E46,,scitt,Enville Road,Kinver,West Midlands,West Midlands,Oldswinford,DY8 2HH,52.4535779,-2.2314364,2025
Invictus Education Trust,,10047463,141342,2I2,,scitt,"Invictus HQ, ","Kinver High School, ","Enville Road, ",,"Kinver ",DY7 6AA,52.4526311,-2.2316768,2025
Ironstone Academy Trust SCITT,,10060801,,3I4,,scitt,"Ironstone Academy Trust ",Flatts Lane,Normanby,,Middlesbrough,TS6 0NP,54.5451518,-1.1492853,2025
Jewish Schools Direct Primary Consortium (LSJS),,10082385,146663,1CP,,school,Wolfson Hillel Primary School,154 Chase Road,,London,,N14 4LG,51.6389916,-0.1278345,2025
John Donne Primary School,,10044489,140507,1DS,,school,John Donne Primary School,Woods Road,,London,London,SE15 2SW,51.4727429,-0.0611774,2025
John Taylor High School,,10032188,136323,1L6,,school,John Taylor High School,"Dunstall Road, Barton under Needwood",,Staffordshire,Burton on Trent,DE13 8AZ,52.765731,-1.716944,2025
Josie Thirkell Institute of Education,,10048068,141563,1GW,,school,Digital Media Centre,County Way,,South Yorkshire,Barnsley,S70 2JW,53.5551999,-1.4791721,2025
Keele and North Staffordshire Teacher Education,,10060817,,24J,5653,scitt,KNSTE C/O Shaw Education Trust,"Kidsgrove Secondary School ",Gloucester Road,Staffordshire,Kidsgrove,ST7 4DL,53.0943623,-2.2328203,2025
Kent and Medway Training,,10052832,,K30,5521,scitt,Leigh Academies Trust - Strood Academy,Carnation Road,,Kent,Rochester,ME2 2SX,51.398135,0.466407,2025
Kent Catholic Schools' Partnership Initial Teacher Training,,10060024,141217,4K1,,scitt," Kent Catholic Schools Partnership",Teston,,Kent,Maidstone,ME18 5BZ,51.2569367,0.4453461,2025
Kent Oaks Consortium,,10030458,136128,2CC,,school,Bradbourne Vale Rd,,,Kent,Sevenoaks,TN13 3LE,51.2868137,0.1866879,2025
Kent Oaks Consortium with the University of Sussex,,10030458,136128,2O2,,school,Bradbourne Vale Rd,,,Kent,Sevenoaks,TN13 3LE,51.2868137,0.1866879,2025
King Edward's Consortium,,10065300,,K50,5591,scitt,King Edward VI Camp Hill School for Girls,Vicarage Road,,Birmingham,Kings Heath,B14 7QJ,52.4309751,-1.9027397,2025
Kingsbridge EIP SCITT,,10054033,,1S2,5616,scitt,"Kingsbridge Teacher Training Center ","c/o Platt Bridge Community School, ",,Wigan,"Rivington Avenue, Platt Bridge",WN2 5NG,53.5224812,-2.5962509,2025
King's College London (University of London),,10003645,,K60,1515,hei,Admissions and Registry Services," King's College London",Bush House  North West Wing,London,30 Aldwych,WC2B 4BG,51.51194109999999,-0.1164779,2025
King's Group Academies,,10063058,144093,1AS,,school,Gomer Junior School,Pyrford Close,Alverstoke,Hampshire,Gosport,PO12 2RP,50.7913413,-1.1588817,2025
Kingston University,,10003678,,K84,1516,hei,Kingston Hill Campus,Kingston Hill,,London,Kingston-upon-Thames,KT2 7LB,51.4292831,-0.2648285,2025
Kirklees and Calderdale SCITT,,10003692,,1WK,,scitt,Fieldhead Co-Location Centre,Fieldhead Crescent,,West Yorkshire,Batley,WF17 9BP,53.738749,-1.6627475,2025
KsENT,,10015449,119055,29C,,school,C/O Five Acre Wood School,Boughton Lane,,Kent,Maidstone,ME15 9QF,51.2496572,0.533295,2025
Laidlaw Teacher Training Partnership,,10005732,147670,4B4,,school,Sedgefield Community College,Hawthorn Road,,County Durham,Sedgefield,TS21 3DD,54.6579859,-1.4450837,2025
Lampton LWA SCITT,,10031352,,2AY,,scitt,Lampton LWA SCITT,Lampton School,,Hounslow,Lampton Avenue,TW3 4EP,51.4772543,-0.3676363,2025
Landau Forte Teacher Training,,10018562,135120,186,,school,Landau Forte College,Fox Street,,Derbyshire,Derby,DE1 2LF,52.9273944,-1.4727404,2025
LDST North West Teacher Training,,10060879,143457,4L2,,scitt,St James House,20 St James Road,,,Liverpool,L1 7BY,53.4083714,-2.9915726,2025
Learn-AT School Direct,,10007796,145203,237,,school,Church Langton CE Primary School,Stonton Road,,Leicestershire,Church Langton Nr Market Harborough,LE16 7SZ,52.5339627,-0.9321805999999998,2025
Learners First Schools Partnership,,10045188,140646,1GX,,school,Learners First Schools Partnership,Bawtry Road,,Rotherham,Wickersley,S66 1JL,53.4218884,-1.273433,2025
Learning In Harmony Teacher Training,,10046984,148825,2H5,,school,Edwards Hall Primary School,Macmurdo Road,Eastwood,Essex,Leigh-On-Sea,SS9 5AQ,51.5724627,0.6468913,2025
LEARN with FA1,,10060074,138851,3L1,,school,Newnham Street,Astley Bridge,,,Bolton,BL1 8QA,53.5993011,-2.4304904,2025
Leeds Beckett University,,10003861,,L27,1517,hei,Admissions Team,Leeds Beckett University,Headingley Campus,,Leeds,LS1 3QW,53.8035274,-1.5480355,2025
Leeds SCITT,,10003863,,L26,,scitt,Brownberrie Lane,Horsforth,,West Yorkshire,Leeds,LS18 5HD,53.8485578,-1.6480962,2025
Leeds Trinity University,,10003863,133838,L24,1532,hei,Leeds Trinity University,Brownberrie Lane,,Leeds,Horsforth,LS18 5HD,53.8481606,-1.6459213,2025
Leicester & Leicestershire SCITT,,10046132,,L35,,scitt,Dovelands Primary School,Hinckley Road,,East Midlands,"Leicester, Leicestershire",LE3 0TJ,52.633066,-1.165422,2025
Leicester & Leicestershire SCITT,,10055113,,L33,5584,scitt,Rushey Mead Academy,Melton Road,,Leicestershire,Leicester,LE4 7AN,52.6606463,-1.1127638,2025
Leicestershire and Rutland Initial Teacher Training,,10024318,,5L3,,scitt,,,,,,,52.772571,-1.2052126,2025
Lift Schools: East,,10033736,138982,2CG,,school,163 Eversholt Street,,,,London,NW1 1BU,51.53192240000001,-0.1359459,2025
Lift Schools: London and South,,10033736,138982,2CH,,school,163 Eversholt Street,,,,London,NW1 1BU,51.531566,-0.1356536,2025
Lift Schools: Midlands,,10033736,138982,2CJ,,school,163 Eversholt Street,,,,London,NW1 1BU,51.53192240000001,-0.1359459,2025
Lift Schools: North,,10033736,138982,2CK,,school,163 Eversholt Street,,,,London,NW1 1BU,51.53192240000001,-0.1359459,2025
Lift Schools: South West,,10033736,138982,2E1,,school,163 Eversholt Street,,,,London,NW1 1BU,51.53192240000001,-0.1359459,2025
Lighthouse Learning Partnership,,10058855,16340,16Z,,school,"St. Marys Road, ",Portishead,,North Somerset,"Bristol ",BS20 7QR,51.476094,-2.7700673,2025
Lime Trust,,10060895,141734,3L2,,school,70-72 New Road,,,London,Chingford,E4 8ET,51.6179463,-0.0120041,2025
Lincoln Bishop University,,10007811,133835,B38,1503,hei,Longdales Road,,,Lincolnshire,Lincoln,LN1 3DY,53.2435632,-0.5371389999999999,2025
Lincolnshire Gateway Academies Trust,,10059809,,3L7,,scitt,Gateway House,North Holme Road,,Lincolnshire,Louth,LN11 0HG,53.3726981,-0.0030219,2025
Lincolnshire ITT,,10058228,,25G,5676,scitt," c/o The Priory Federation of Academies",Clayton Road,,Lincolnshire,Lincoln,LN5 8RE,53.2080394,-0.5435578999999999,2025
Lincroft Academy,,10065849,136471,235,,school,"The Pilgrim Partnership, Sharnbrook Academy",Odell Road,Sharnbrook,Bedfordshire,Bedford,MK44 1JL,52.2230487,-0.5569514000000001,2025
Lingfield SCITT,,10059742,,6L2,,scitt,Lingfield Education Trust Lingfield Education Trust,c/o Corporation Road Community Primary School,Corporation Road,,Darlington,DL3 6AR,54.5322375,-1.5570895,2025
"Linwood Training, Support and Advice",,10017916,113961,1X3,,school,Poole SCITT,"Ad Astra Infant School, Sherborn Crescent",,Dorset,Poole,BH17 8AP,50.7497638,-1.9652852,2025
Lionheart Teach,,10055191,139624,1O8,,school,Ridge Way,Oadby,,Leicestershire,Leicester,LE2 5TP,52.5885202,-1.0724685,2025
Little Lever Train to Teach,,10024318,142296,8J8,,scitt,Little Lever School,Church Street,Little Lever,Lancashire,Bolton,BL3 1BT,53.56168359999999,-2.3836076,2025
Littleton CofE Infant School,,10079622,125231,2HR,,school,Littleton CE Infant School,Rectory Close,,Surrey,Shepperton,TW17 0QE,51.4067579,-0.4609073,2025
Liverpool Hope University,,10003956,133826,L46,1518,hei,Student Enrolment,Hope Park,,Merseyside,Liverpool,L16 9JD,53.3908007,-2.8922988,2025
Liverpool John Moores University,,10003957,,L51,1519,hei,"Liverpool John Moores University ","Education Building, Maryland Street",,Merseyside,Liverpool,L1 9DE,53.4036732,-2.973103800000001,2025
Liverpool Teacher Development Partnership,,10006188,104715,2T3,,school,St John Bosco Arts College,Storrington Avenue,,Merseyside,Liverpool,L11 9DQ,53.4510167,-2.9097901,2025
London District East SCITT,,10064183,140998,24M,5652,scitt,Tollgate Primary School,Barclay Road,,Newham,London,E13 8SA,51.519907,0.0339364,2025
London District East Teaching School Hub,,10064183,143881,5U5,,school,London District East Teaching School Hub,"The Boleyn Trust, c/o Tollgate School",Barclay Road,London,Newham,E13 8SA,51.5303952,0.03809709999999999,2025
London East Teacher Training Alliance,,10064599,144236,133,5663,scitt,"LETTA, Second Floor, St. Paul's Way Community Centre",83 St Paul's Way,,,London,E3 4AJ,51.518104,-0.0270085,2025
London Metropolitan University,,10004048,133816,L68,1520,hei,London Metropolitan University,Admissions Office,,London,166-220 Holloway Road,N7 8DB,51.5516422,-0.1105435,2025
London School of Jewish Studies (LSJS),,10029147,,28T,5501,scitt,"44a Albert Road ",,,,"Hendon, London",NW4 2SJ,51.5882002,-0.2137078,2025
London South Bank University,,10004078,133873,L75,,hei,London South Bank University,103 Borough Road,,London,Southwark,SE1 0AA,51.4980714,-0.1024481,2025
London South Teaching School Hub,,10056990,142178,8L5,,school,London South Teaching School Hub,Charles Dickens Primary School,Toulmin Street,London,London,SE1 1AF,51.5009558,-0.0967029,2025
London West Alliance ITT,,10031352,136341,1P8,,school,Lampton School,London West Alliance ITT,,Hounslow,Lampton Avenue,TW3 4EP,51.47723939999999,-0.3676809,2025
Loreto Grammar School Lead Partner,,10038100,138464,1H2,,school,Dunham Road,,,Cheshire,Altrincham,WA14 4AH,53.3883975,-2.3568896,2025
Loughborough Learning Alliance,,10017095,120352,195,,school,Ashmount School,Thorpe Hill,,Leicestershire,Loughborough,LE11 4SQ,52.76921669999999,-1.2391909,2025
Loughborough University,,10004113,133834,L79,1521,hei,Loughborough University,,,Leicestershire,Loughborough,LE11 3TU,52.76482799999999,-1.2295195,2025
Lumen Christi Catholic Multi Academy Company,,10060961,141835,6Y6,,school,St Thomas Aquinas Catholic secondary school,Wychall Lane,Kings Norton,West Midlands,Birmingham,B388AP,52.4096187,-1.9472515,2025
Magnificat Partnership,,10052836,141063,2L1,,school,South Birmingham SCITT,Solihull Sixth Form College,,Solihull,Widney Manor Road,B91 3WR,52.4057217,-1.7728004,2025
Maiden Erlegh Institute,,10033353,136637,1Y1,,school,Maiden Erlegh School,Silverdale Road,,Reading,Earley,RG6 7HS,51.4373034,-0.9254626,2025
Manchester Metropolitan University,,10004180,133844,M40,1522,hei,Brooks Building,Bonsall Street,,Greater Manchester,Manchester,M15 6GX,53.4666748,-2.2465299,2025
Manchester Nexus SCITT,,10058966,,2EU,5710,scitt,The Blue Coat School,Egerton Street,,,Oldham,OL1 3SQ,53.5447178,-2.10836,2025
Manchester Prospere Teacher Training,,10046414,139148,3D2,,school,Chorlton High School,Nell Lane,,,Manchester,M217SL,53.4363874,-2.2645594,2025
Manchester Trusts and Schools Alliance,,10063039,144131,1JR,,school,Brookburn Primary School,Brookburn Rd,,Greater Manchester,Chorlton,M21 8EH,53.4358546,-2.2826708,2025
Manor Primary School,,10053803,141858,1QO,,school,Manor Primary School,Ettingshall Road,,Bilston,Coseley,WV14 9UQ,52.5490377,-2.0960927,2025
Maplefields Academy (Mainstream and Special Needs),,10065849,138634,21F,,school,"The Pilgrim Partnership, Sharnbrook Academy, ",Odell Road,Sharnbrook,Bedfordshire,Bedford,MK44 1JL,52.2230487,-0.5569514000000001,2025
Marlbrook Collaboration of Schools,,10070800,116684,1Y2,,school,Marlbrook Primary School,Green Croft,,Herefordshire,Hereford,HR2 7NT,52.0401888,-2.7251068,2025
Medway Valley Training Partnership,,10035084,118923,1Q5,,school,c/o The Thomas Aveling School,Arethusa Road,,"Kent ",Rochester,ME1 2UW,51.3641608,0.5027328,2025
Melrose Learning Trust,,10034923,136988,4M2,,school,4 Whitfield Court,St John's Road,,Durham,Durham,DH7 8XL,54.7467221,-1.6110038,2025
Mersey Boroughs ITT Partnership,,10045107,,1X8,5641,scitt,c/o St Mary & St Paul's CE Primary School,Bryer Road,,Liverpool,Prescot,L35 5DN,53.420575,-2.8012507,2025
Mersey Boroughs ITT Partnership (Lead Partner),,10045107,104453,17Q,,school,St Mary & St Paul's CE Primary School,Bryer Road,,Liverpool,Prescot,L35 5DN,53.4205479,-2.8014262,2025
Merseyside Special Schools Alliance,,10077028,104751,27B,,school,C/O Millstead School,Iliad Street,,Merseyside,Liverpool,L5 3LU,53.4182766,-2.9760969,2025
Middlefield Primary Academy,,10038094,138595,1C2,,school,Andrew Road,Eynesbury,,Cambridgeshire,St. Neots,PE19 2QE,52.2136627,-0.2642901,2025
Middlesex University,,10004351,,M80,1571,hei,Middlesex University,The Burroughs,,London,Hendon,NW4 4BT,51.5901102,-0.228922,2025
Mid Essex Initial Teacher Training,,10058864,,M82,5524,scitt,Mid Essex ITT,Notley High School & Braintree Sixth Form,,Essex,Braintree,CM7 1WY,51.865992,0.550046,2025
Mid Somerset Consortium for Teacher Training,,10058347,,M84,5604,scitt,Crispin School,Church Road,,Somerset,Street,BA16 0AD,51.130615,-2.7324773,2025
Milton Hall Primary School,,10069673,115313,2M1,,school,Milton Hall Primary School,Salisbury Ave.,Westcliff-on-Sea,,Southend-on-Sea,SS0 7AU,51.5415068,0.7010867,2025
Morley Exceed Partnership,,10054666,142452,2ER,,school,Westerton Primary Academy,Hesketh Lane,,Wakefield,Tingley,WF3 1AR,53.7247818,-1.5780724,2025
Mornington Primary School,,10066979,145536,2K4,,school,Mornington Crescent,Nuthall,,Nottinghamshire,Nottingham,NG16 1RF,52.9862107,-1.2275162,2025
Mortimer Primary School,,10072196,108673,9A8,,school,Mortimer Road,,,Tyne and Wear,South Shields,NE34 0RW,54.980155,-1.4245313,2025
Mosaic Schools Learning Trust,,10059391,,8A1,,scitt,Towncourt Lane,,,,Petts Wood,BR5 1EL,51.3830438,0.078235,2025
Mowbray Education Trust,,10059338,137617,8H9,,school,"John Ferneley College, Scalford Road",,,Leicestershire,Melton Mowbray,LE13 1LH,52.780748,-0.886809,2025
Mulberry College of Teaching,,10064234,,5V5,5727,scitt,Richard Street,Commercial Road,,,London,E1 2JP,51.5143048,-0.0602516,2025
Mulberry Schools Trust,,10061562,143629,1CW,,school,"Mulberry School for Girls, Richard Street",Commercial Road,,Greater London,London,E1 2JP,51.5143048,-0.0602516,2025
National Specialist SCITTs,,10060171,,2F1,5716,scitt,"The National Modern Languages SCITT, Silverdale School (Lead School)",Bents Crescent,,South Yorkshire,Sheffield,S11 9QH,53.3520556,-1.5275836,2025
NEAT ITT,,10064236,108526,1L1,,scitt,1 Hedley Court,Orion Business Park,,Tyne and Wear,North Shields,NE29 7ST,55.0095663,-1.4909246,2025
NELTA,,10059409,,251,5659,scitt,Beal High School Upper Site,Woodford Bridge Road,,,Ilford,IG45LP,51.5860169,0.0517167,2025
Nene Park Academy,,10034976,137082,6N8,,school,CMAT Swavesey Village College,"Gibraltar Lane, Swavesey",,,Cambridge,CB24 4RS,52.2947667,-0.0055253,2025
Newbury ITE Partnership,,10038188,138525,1RM,,school,Trinity School,Love Lane,,West Berkshire,Newbury,RG14 2DU,51.4128345,-1.3193271,2025
New City College,,10006963,130418,N62,,school,Poplar High Street,,Poplar,,London,E14 0AF,51.5081825,-0.016087,2025
Newham Community SCITT,,10068263,,4M4,,scitt,South East Building - Eastlea Community School,Exning Road,,,London,E16 4ND,51.522709,0.0086059,2025
Newman Teaching Academy,,10060469,,3N4,,scitt,Little Chell Lane,Tunstall,,Staffordshire,Stoke-on-Trent,ST6 6LZ,53.0656848,-2.1974619,2025
Newport Junior School,,10064119,116234,175,,school,Belle Vue Road,,,Hampshire,Aldershot,GU12 4RZ,51.2441602,-0.7464069,2025
Nexus Education Schools Trust,,10060657,,N3Z,,scitt,Worsley Bridge Primary School,Brackley Road,,Kent,Beckenham,BR3 1RF,51.4162328,-0.0269005,2025
Nicholas Postgate Catholic Academy Trust,,10053805,142282,2DW,,school,St. Patrick's Catholic Primary School,Westbury St,,Stockton on Tees,Thornaby,TS176NE,54.5511198,-1.2992746,2025
NIoT@Alban TSH,,10058506,70182,1MN,,school,c/o Sandringham School,The Ridgeway,,Herts,St Albans,AL4 9NX,51.7706101,-0.3066995,2025
NIoT@Colyton ESW,,10032336,,4C2,,scitt,SWIFT Teacher Training Central Administrative Office,Kingsbridge Community College,Balkwill Road,Devon,Kingsbridge,TQ7 1PL,50.2806358,-3.784861,2025
NIoT@David Ross Education Trust,,10007149,137200,1FE,,school,Humberston Academy,Humberston Avenue,,North East Lincolnshire,"Humberston, Grimsby",DN36 4TF,53.5292063,-0.0301988,2025
NIoT@Harris Initial Teacher Education,,10090839,135311,1TZ,,school,National Institute of Teaching@Harris Initial Teacher Education,112 Peckham Rd,,London,Peckham,SE15 5DZ,51.4932348,-0.07171160000000001,2025
NIoT@Inspiration Trust,,10090839,,2H7,,scitt,Inspiration Teaching School Hub,256 Hall Road,,Norfolk,Norwich,NR1 2RN,52.6094049,1.2897355,2025
NIoT@Kernow Initial Teacher Education,,10007792,136312,21J,,school,Kernow Learning MAT,"The Old Cricket Pavilion, Treninnick Hill",,Cornwall,Newquay,TR7 2JU,50.40672850000001,-5.0691149,2025
NIoT@Laurus Institute,,10054410,,4L3,,scitt,Cheadle Hulme High School,Woods Lane,Cheadle Hulme,Cheshire,Cheadle,SK8 7JY,53.3654963,-2.1877843,2025
NIoT@LearnAT,,10007796,133832,5J5,,school,"Stonton Road ","Church Langton ",,"Leicestershire ","Market Harborough ",LE16 7SZ,52.5376525,-0.92916,2025
NIoT@LEO Academy Trust,,10058553,,4L1,,scitt,LEO Academy Trust,314 Malden Road,,Greater London,Cheam,SM3 8EP,51.368043,-0.2251401,2025
NIoT@Liverpool,,10090839,141565,3L4,,school,National Institute of Teaching@Star Academies,Shadsworth Road,,Lancashire,Blackburn,BB1 2HT,53.7355324,-2.4529454,2025
"NIoT: National Institute of Teaching, founded by the School-Led Development Trust",,10090839,,2N2,5728,scitt,,,,,,,12.9454952,80.2118563,2025
NIoT@North East SCITT,,10052835,136451,L06,,school,North East SCITT (Formerly Shotton Hall SCITT),Passfield Way,,Durham,Peterlee,SR8 1AU,54.749467,-1.353687,2025
NIoT@Oasis Community Learning,,10090839,139128,7K9,,school,Oasis Academy Woodview,Woodview Drive,,,Birmingham,B15 2HU,52.4669195,-1.906359,2025
NIoT@Ormiston Teacher Training East,,10090839,,3P4,,scitt,Oriel Avenue,Gorleston,,Norfolk,Great Yarmouth,NR31 7JJ,52.5705283,1.7076027,2025
NIoT@Ormiston Teacher Training North,,10090839,,24P,,scitt,Beaconsfield Drive,Blurton,,Staffordshire,Stoke on Trent,ST3 3JD,52.9764335,-2.1522227,2025
NIoT@Ormiston Teacher Training Suffolk,,10058272,,5S5,,scitt,Unit G.05B,Assay Studios,141 Newhall Street,,Birmingham,B3 1SF,52.4838094,-1.9061373,2025
NIoT@Ormiston Teacher Training West,,10090839,,2P4,,scitt,Marsh Lane,Fordhouses,,,Wolverhampton,WV10 6SE,52.6268459,-2.1326197,2025
NIoT@Outwood Grange Academies Trust,,10090839,135961,1GV,,school,Outwood Conference Centre - Yorkshire & Humber,Tenter Balk Lane,,South Yorkshire,Doncaster,DN6 7RQ,53.7080917,-1.5125411,2025
NIoT@Pen Green Centre,,10034200,131232,21P,,school,Rockingham Road,,,Northamptonshire,Corby,NN17 1AG,52.4987273,-0.6892868,2025
NIoT@Rainbow TSH,,10060884,,4R3,,scitt,Rainbow Teaching School Hub," Unit 16, Chapel Brook Trade Park",Wilson Road,,Huyton,L36 6FH,53.4058156,-2.8227979,2025
NIoT@Star Academies,,10090839,141565,2A6,,school,National Institute of Teaching@Star Academies,Shadsworth Road,,Lancashire,Blackburn,BB1 2HT,53.7366948,-2.4537683,2025
NIoT@Star Academies Graduate Apprentices,,10090839,,5A6,,scitt,NIoT at Star Academies,Shadsworth Road,,,Blackburn,BB1 2HT,53.73582520000001,-2.4536754,2025
NIoT@The White Horse Federation,,10034817,137160,4W2,,school,The White Horse Federation Central Offices,Plymouth Street,,,Swindon,SN1 2LB,51.5612526,-1.7723836,2025
NIoT@Trinity Institute of Education,,10029939,136094,1YF,,school," Trinity Institute of Education","The Maltings, Maltings Road",,West Yorkshire,Halifax,HX2 0TJ,53.737848,-1.9014689,2025
NIoT@Unity,,10058379,,2U6,,scitt,Unity Schools Partnership Offices,Homefield Road,,Suffolk,Haverhill,CB9 8QP,52.0739242,0.4235547,2025
NIoT@Windsor Academy Trust,,10058502,136618,2HE,,school,Trinity Point,High Street,,West Midlands,Halesowen,B63 3HY,52.4510853,-2.0509256,2025
"NITE: National Institute of Teaching & Education, part of Coventry University Group",,10001726,,C85,1585,hei,The National Institute of Teaching and Education (NITE),Fleming House,Seebeck Place,,Milton Keynes,MK5 8FR,52.0258176,-0.7733823,2025
Norbury School,,10080043,102222,3N2,,school,Welldon Crescent,,,Middlesex,Harrow,HA1 1QQ,51.5836097,-0.3400363,2025
"Norfolk, Essex and Suffolk Teacher Training (NESTT)",,10006399,,S14,5541,scitt,120 Star Lane,,,Suffolk,Ipswich,IP4 1JN,52.0537304,1.1624869,2025
Norfolk Teacher Training Centre,,10004772,,N43,5627,scitt,Norfolk Teacher Training Centre,City College Norwich,,Norwich,5 Ipswich Road,NR2 2LJ,52.6176581,1.2853557,2025
Northampton School for Boys,,10031382,136299,16G,,school,Northampton School for Boys,Billing Road,,Northamptonshire,Northampton,NN1 5RT,52.2389261,-0.8663904,2025
Northamptonshire Teaching School Hub,,10007901,135317,1QM,,scitt,Coomb Road,Great Oakley,,Northamptonshire,Corby,NN18 8LA,52.4679061,-0.7120046,2025
Northampton Teacher Training Partnership,,10031382,,N42,5527,scitt,c/o Northampton School for Boys,Billing Road,,Northamptonshire,Northampton,NN1 5RT,52.239253,-0.8666106,2025
North East Partnership SCITT (Physical Education),,10003503,,N55,,scitt,John Spence Community High School,Preston Road,,Tyne and Wear,North Shields,NE29 9PU,55.0220564,-1.4509305,2025
North East Schools Teaching Alliance,,10039055,138845,1ZA,,school,Nunthorpe Academy,Guisborough Road,,Middlesbrough,Nunthorpe,TS7 0LA,54.530524,-1.1628771,2025
Northern Lights Initial Teacher Training,,10036293,137831,1YQ,,school,Northern Lights ITT,C/O Benedict Biscop CE Academy,Marcross Drive,Sunderland,Moorside,SR3 2RE,54.86437369999999,-1.4260994,2025
Northern Star Initial Teacher Training,,10057355,,255,,scitt,Skipton Girls' High School,Gargrave Road,,North Yorkshire,Skipton,BD23 1QL,53.96335699999999,-2.0272043,2025
North Essex Teacher Training (NETT),,10020534,,N46,,scitt,Tendring Education Centre,Jaywick Lane,,Essex,Clacton on Sea,CO16 8BE,51.7926852,1.1202532,2025
North Lincolnshire SCITT Partnership,,10004694,,N66,5590,scitt,Sir John Nelthorpe School,Grammar School Road,,North Lincolnshire,Brigg,DN20 8AA,53.5543858,-0.4895621000000001,2025
North London New River Teaching Alliance,,10034567,137531,1JV,,school,Bidwell Gardens,,,London,,N11 2AZ,51.6007669,-0.1371393,2025
North Star Community Trust,,10058354,136952,6T6,,school,Cuckoo Hall Lane,Edmonton,,,London,N98DR,51.63599439999999,-0.04375039999999999,2025
North Tyneside SCITT,,10004714,,N73,5567,scitt,North Tyneside SCITT,Swans Centre for Innovation,Station Road,Tyne and Wear,Wallsend,NE28 6HJ,54.987967,-1.5299733,2025
Northumberland Teacher Training,,10035957,137746,19E,,school,The Three Rivers Teaching School Hub,"Sir Bobby Robson House, Esh Plaza",Sir Bobby Robson Way,Tyne and Wear,Newcastle Upon Tyne,NE13 9BA,55.0330767,-1.6387394,2025
"Northumbria Art, Craft and Design Partnership",,10001429,108641,2X6,,school,Lynn Welsh,George Stephenson High School,,North Tyneside,Killingworth,NE12 6SA,55.03358009999999,-1.5669219,2025
North West Learning Partnership,,10053591,142161,13N,,school,NWLP Initial Teacher Training,Willow Tree Primary School Site,Leach Lane,Merseyside,St Helens,WA9 4LZ,53.4214055,-2.7120869,2025
North West Leicestershire,,10055367,,7F6,,scitt,Castle Donington College,,,,Derby,DE742LN,52.8396141,-1.3355029,2025
North West London Train to Teach,,10024318,138457,4W6,,scitt,Wembley High Technology College,East Lane,,,North Wembley,HA0 3NT,51.561918,-0.312378,2025
North West SCITT,,10046861,,252,,scitt,North West SCITT,Blackpool Sixth Form College,,Blackpool,Blackpool Old Road,FY3 7LR,53.83889480000001,-3.0168037,2025
North West SHARES SCITT,,10040125,,N83,,scitt,North West SHARES SCITT,Woodland Primary Teaching School,,Lancashire,"Heathgate, Skelmersdale",WN8 6QH,53.5455769,-2.7603869,2025
North Wiltshire SCITT,,10058663,,24U,,scitt,"North Wiltshire SCITT, Teacher Education Centre","Royal Wootton Bassett Academy, Lime Kiln",,Wiltshire,Royal Wootton Bassett,SN4 7HG,51.547161,-1.9016302,2025
North Worcestershire Teacher Training Hub,,10040242,139286,3G4,,school,Watt Close,,,Worcestershire,Bromsgrove,B61 7DH,52.33239829999999,-2.0665214,2025
North Worcestershire Teacher Training Hub,,10043915,140292,19S,,school,South Bromsgrove High School,Charford Road,,Worcestershire,Bromsgrove,B60 3NL,52.3249216,-2.0611586,2025
"Notre Dame High School, Norwich",,10036613,137913,1GT,,school,Notre Dame High School,Surrey Street,,Norfolk,Norwich,NR1 3PB,52.6231668,1.2961199,2025
Nottingham Catholic Initial Teacher Training Partnership,,10059277,137409,1YD,,school,The Becket Way,Wilford Lane,,Nottinghamshire,West Bridgford,NG2 7QY,52.9258677,-1.1545838,2025
Nottinghamshire TORCH SCITT,,10055362,,254,5662,scitt,"SIR COLIN CAMPBELL BUILDING, Jubilee Campus",Triumph Road,,Nottinghamshire,Nottingham,NG7 2TU,52.9520961,-1.18617,2025
Nottingham Trent University,,10004797,,N91,1524,hei,50 Shakespeare Street,,,Nottingham,,NG1 4FQ,52.9580712,-1.1540226,2025
Nower Hill High School,,10034831,137028,4N2,,school,George V Avenue,,,Middlesex,Pinner,HA5 8RP,51.5917967,-0.3656768,2025
NWAT Futures Hub,,10060716,136553,5N2,,school,The Coach House,Union Street,,Cheshire,Chester,CH1 1QP,53.1905552,-2.8838299,2025
Oakthorpe Primary School,,10045988,131407,151,,school,Tile Kiln Lane,,,London,,N13 6BY,51.6139314,-0.0935379,2025
Oakwood Academy,,10037232,138130,2CM,,school,Chatsworth Road,Ellesmere Park,,Manchester,Eccles,M30 9DY,53.4953355,-2.3360356,2025
Odyssey Collaborative Trust,,10083346,146477,1Z4,,school,PO Box 8540,,,Derbyshire,Derby,DE65 9EL,52.8739177,-1.6143683,2025
Odyssey Teaching School Hub,,10032220,136353,1ZB,,school,"Pate's Grammar School ",Princess Elizabeth Way,,Gloucestershire,Cheltenham,GL51 0HG,51.906695,-2.1156684,2025
One Cumbria Teaching School Hub,,10058240,135632,1A3,5732,scitt,One Cumbria SCITT,c/o Queen Elizabeth Grammar School,Ullswater Road,,Penrith,CA11 7EG,54.6594658,-2.7581964,2025
One Excellence Trust,,10064612,144542,3H3,,school,"Pentland Primary School ",Pentland Avenue,,,Stockton on Tees,TS23 2RF,54.6043047,-1.289476,2025
Orange Moon Education,,10054833,140417,3A7,,school,6 Sherwood Rise,,,,Nottingham,NG7 6JF,52.97104969999999,-1.1582119,2025
Oriel ITT Partnership,,10016856,134042,2LR,,school,Matthews Drive,Maidenbower,,W Sussex,Crawley,RH10 7XW,51.1065268,-0.1582535,2025
Orion Education,,10058616,,3A2,,scitt,Mansion House,Coopers School,Hawkwood Lane,Kent,Chislehurst,BR7 5PS,51.407563,0.0731029,2025
Orleans Park Teaching Alliance,,10038668,138651,2HZ,,school,Orleans Park School,Richmond Road,,Middlesex,Twickenham,TW13BB,51.4493039,-0.319742,2025
Ormiston Rivers Academy,,10034987,137152,4T4,,school,"Southminster Road ",,,Essex,"Burnham-On-Crouch ",CM0 8QB,51.6375724,0.8128712,2025
Orwell Teacher Training,,10063480,144217,2HP,,school,Orwell Education Alliance,Prince of Wales Drive,,Suffolk,Ipswich,IP2 8PY,52.0419753,1.142259,2025
OTT SCITT,,10059630,,24T,5669,scitt,OTT SCITT,The Cherwell School,,Oxford,Marston Ferry Road,OX2 7EE,51.7757449,-1.2586363,2025
Our Lady and St Hubert's Catholic Primary School,,10049319,141926,262,,school,Moat Road,,,West Midlands,Oldbury,B68 8ED,52.4837437,-2.0022398,2025
Our Lady of the Magnificat Multi-Academy,,10060812,143634,3J3,,school,Trinity Catholic School,Guys Cliffe Avenue,,Warwickshire,Royal Leamington Spa,CV32 6NB,52.2961196,-1.5519304,2025
Owls,,10070946,104863,2K3,,school,Farnborough Road Infant School,Birkdale,,Merseyside,Southport,PR83DF,53.6163841,-3.0150529,2025
Oxford Brookes University,,10004930,133864,O66,1526,hei,Headington Road,Headington,,Oxfordshire,Oxford,OX3 0BP,51.755011,-1.224225,2025
Oxford University,,10007774,,O33,1556,hei,Department of Education,15 Norham Gardens,,Oxfordshire,Oxford,OX2 6PY,51.7636662,-1.2555731,2025
PACE Academy Trust,,10045671,140704,1O1,,school,Chipstead Valley Primary School,Chipstead Valley Road,,Surrey,Coulsdon,CR5 3BW,51.3167348,-0.160282,2025
Painsley Catholic Academy,,10059938,,F72,,scitt,Painsley Catholic Academy,Station Road,Cheadle,Staffordshire,Stoke-on-Trent,ST10 1LH,52.9812309,-1.9903545,2025
Palmerston School,,10016906,104748,1AE,,school,Palmerston School,Beaconsfield Road,,Merseyside,Liverpool,L25 6EE,53.3806024,-2.8861175,2025
Park View School,,10059154,136971,2P1,,school,Church Chare,,,Durham,Chester Le Street,DH3 3QA,54.8553012,-1.5692226,2025
Parkwood Primary School,,10061930,143569,2HH,,school,"Parkwood Primary School - School Direct ","Parkwood St, ",,West Yorkshire,Keighley,BD21 4QH,53.8641016,-1.9019839,2025
Parliament Hill School,,10004992,100050,H14,,school,Parliament Hill School,Highgate Road,,,London,NW5 1RL,51.5583417,-0.1493249,2025
Parmiter's School,,10034176,136899,1D5,,school,Parmiter's School,High Elms Lane,,Watford,Garston,WD25 0UU,51.7027017,-0.3902834,2025
Partnership London SCITT (PLS),,10053276,,2B1,5699,scitt,c/o Sydney Russell School,,,---,Dagenham,RM9 5QT,51.5486077,0.1340839,2025
Pathfinder Schools,,10063586,137049,4P2,,school,Greening Road,,,Northants,Rothwell,NN14 6BB,52.4243987,-0.8089656,2025
Pathfinder Teaching School Hub,,10058625,136617,1VU,,school,Archbishop Holgate's School,Hull Road,,North Yorkshire,York,YO10 5ZA,53.9524,-1.0411,2025
Pathways Partnership,,10069027,107928,27C,,school,Pathways Partnership,Seacroft Grange Primary,Moresdale Lane,West Yorkshire,Leeds,LS14 6JR,53.8112404,-1.4726282,2025
Pele Trust Partnership,,10082400,145780,16S,,school,Ponteland Primary School,Callerton Lane,,Newcastle-upon-Tyne,Ponteland,NE20 9EY,55.049208,-1.74391,2025
Perins Innov-8,,10034823,137128,2DC,,school,Pound Hill,Alresford,,Hampshire,Winchester,SO24 9BS,51.0888362,-1.1684304,2025
Pioneers Partnership SCITT,,10058215,,1Z8,5678,scitt,Kenyon Lane,Middleton,,Lancs,Manchester,M24 2GT,53.5477294,-2.1793739,2025
Plume Community Teaching Partnership,,10035963,137790,1XB,,school,Plume School,Fambridge Road,,Essex,Maldon,CM9 6AB,51.7300098,0.6757352,2025
Plymouth Marjon University,,10037449,,P63,1508,hei,Derriford Road,,,Devon,Plymouth,PL6 8BH,50.4197618,-4.1104325,2025
Plymouth Teachers and Schools Alliance,,10037449,70131,1T7,,school,Derriford Road,,,Devon,Plymouth,PL6 8BH,50.4181201,-4.1159316,2025
Polaris,,10080313,121653,2GW,,school,St Mary's Catholic Primary School,Highfield Road,,North Yorkshire,Malton,YO17 7DB,54.1415278,-0.7877080999999999,2025
Poole SCITT,,10057353,,P75,5505,scitt,Ad Astra Infant School,Sherborn Crescent,,Dorset,Poole,BH17 8AP,50.7497638,-1.9652852,2025
Portsmouth Primary SCITT,,10042780,,P82,5532,scitt,Portsmouth Primary SCITT,c/o Stamshaw Junior School,,Hampshire,Portsmouth,PO2 8QH,50.8223528,-1.0874499,2025
Potentia Teaching School Hub,,10007851,113033,5P2,,school,Northern Gateway Enterprise Centre,Saltergate,,Derbyshire,Chesterfield,S40 1UT,53.2376981,-1.4273057,2025
Potteries Educational Trust Teacher Training,,10066111,,4P5,,scitt,City of Stoke Sixth Form College,Leek Road,,Staffordshire," Stoke-on-Trent",ST4 2RU,53.0067068,-2.1781204,2025
Prestolee SCITT,,10055218,,2AS,5685,scitt,Prestolee Primary School,Church Road,,Greater Manchester,Radcliffe,M26 1HJ,53.5483669,-2.3708645,2025
"Preston Hedges Primary School, Preston Hedges Trust",,10039632,139039,4P1,,school,Preston Hedges Primary School,,,Northamptonshire,Northampton,NN4 6BU,52.20328199999999,-0.8784801999999999,2025
Priestley Partnership,,10064304,143566,7G7,,school,Priestley Academy Trust,"Upper Ground Floor, Merchants Quay",Merchants Quay,West Yorkshire,Shipley,BD17 7DB,53.8363692,-1.780775,2025
Primary Advantage,,10079309,100263,1XW,,school,Holy Trinity Primary School,Beechwood Road,,London,Hackney,E8 3DY,51.5444777,-0.0737478,2025
Primary Catholic Partnership SCITT (PCP SCITT),,10045987,,P85,5533,scitt,c/o Holy Family Catholic Primary School,Mansel Road West,,Hampshire,Southampton,SO16 9LP,50.9321675,-1.4669876,2025
Prince Henry's and South Worcestershire ITT,,10032987,,2ET,,scitt,Prince Henry's High School,Victoria Avenue,,Worcestershire,Evesham,WR11 4QH,52.098898,-1.9416189,2025
"Queen Elizabeth's Grammar School, Horncastle",,10038619,138665,2KK,,school,West Street,,,Lincolnshire,Horncastle,LN9 5AD,53.209944,-0.121758,2025
Queen Ethelburga's College,,10005336,121743,G17,,school,Thorpe Green Lane,,,North Yorkshire,York,YO269SS,54.0269269,-1.2968083,2025
Reach Teacher Training,,10037673,138266,7K1,,school,53-55 High Street,,,Middlesex,Feltham,TW13 4AB,51.4432369,-0.4113250000000001,2025
REAch Teach Primary Partnership,,10060390,100706,1QU,5729,scitt,Henhurst Ridge Primary Academy,,,,Burton on Trent,DE13 9TQ,52.81402809999999,-1.6371359,2025
Redborne Upper School And Community College,,10033274,136559,1R7,,school,Flitwick Road,,,Bedford,Ampthill,MK45 2NU,52.019589,-0.498107,2025
Redcar and Cleveland Teacher Training Partnership,,10084206,147393,3L3,,school,,,,,,,54.5676107,-1.1637704,2025
Red Kite Teacher Training,,10054307,,2B9,5706,scitt,Red Kite Learning Trust,Pannal Ash Road,,North Yorkshire,Harrogate,HG2 9PH,53.9780284,-1.5521188,2025
Redriff Primary School,,10034551,137648,1U2,,school,Redriff Primary School,Salter Road,,London,Rotherhithe,SE16 5LQ,51.5016432,-0.0368417,2025
Red Rose Alliance,,10007842,137296,5W2,,school,Bishop Rawstorne C of E Academy,Highfield Road,Croston,Lancashire,Leyland,PR26 9HH,53.6633238,-2.7700537,2025
Redwell Primary School,,10074797,148611,5J7,,school,Redwell Primary School,Barnwell Road,,Northamptonshire,Wellingborough,NN8 5LQ,52.3147536,-0.7094176,2025
Richard Hale School/The Sele School Partnership,,10042280,139873,1N6,,school,Richard Hale School,Hale Road,,Hertfordshire,Hertford,SG13 8EN,51.7923687,-0.0780927,2025
Richmond School,,10065396,145090,18L,,school,Richmond School & Sixth Form Coll,Darlington Road,,North Yorkshire,Richmond,DL10 7BQ,54.4080539,-1.7233954,2025
Ridgeway Education Trust (RET) SCITT,,10059844,138490,4R2,,scitt,"Didcot Girls' School ",Manor Crescent,,Oxfordshire,Didcot,OX11 7AJ,51.6072044,-1.2551419,2025
Riding Forward Education Alliance,,10073374,117889,1PU,,school,"St. Leonard's Road, Molescroft",Molescroft,,East Riding of Yorkshire,Beverley,HU17 7HF,53.8525272,-0.4421611,2025
Ripley ITT,,10058677,,R23,5648,scitt,Ashton Road,,,Lancashire,Lancaster,LA1 4RS,54.0390665,-2.8007533,2025
Rise Multi Academy Trust,,10059914,140850,4R1,,school,Braemar Court,1311A Melton Road,Syston,Leicestershire,Leicester,LE7 2EN,52.7002983,-1.0697004,2025
Risley Avenue Primary School,,10076690,131879,29Y,,school,The Roundway,,,,London,N17 7AB,51.5999199,-0.078655,2025
Rivers Teaching Alliance,,10007139,141443,2B7,,school,Henwick Road,,,Worcestershire,Worcester,WR2 5NS,52.1919219,-2.2352198,2025
Riverview Institute for Teacher Education (RITE),,10000580,118109,2Z2,,scitt,Riverview Family of Schools,Barrow Road,Barton-upon-Humber,North Lincolnshire,Barton-upon-Humber,DN18 6AE,53.6817981,-0.421378,2025
Roehampton University,,10007776,,R48,1563,hei,Roehampton University,Roehampton lane,,,London,SW15 5PU,51.4579866,-0.2432869,2025
Romero Catholic Academy Trust,,10084897,,2T2,,scitt,Group First House,Shuttleworth Mead,Padiham,Lancashire,Burnley,BB12 7NG,53.7938346,-2.323836,2025
Rowan Gate Primary School,,10075272,131079,4G4,,school,Finedon Road,,,Northamptonshire,Wellingborough,NN8 4NS,52.30889999999999,-0.6842644999999999,2025
Royal Greenwich Hub,,10078039,100158,1G2,,school,Heronsgate Primary School,Whinchat Road,,,London,SE28 0EA,51.4934988,0.0835901,2025
Ryders Hayes,,10033094,,4T5,,scitt,Gilpin Crescent,Pelsall,,"West Midlands ",Walsall,WS3 4HX,52.6346885,-1.9651978,2025
Sacred Heart Newcastle SCITT,,10059424,,2BA,5705,scitt,Fenhall Hall Drive,,,Newcastle upon Tyne,Fenham,NE4 9YH,54.9836554,-1.6572924,2025
Sacred Heart Secondary - Redcar and Cleveland Teacher Training,,10053885,142273,5H1,,school,Mersey Road,,,,"Redcar ",TS10 1PJ,54.6117721,-1.0759889,2025
Saffron Teaching School Hub,,10033783,136776,5A7,,school,Audley End Road,,,Essex,Saffron Walden,CB11 4UH,52.0176165,0.2304206,2025
Saint George's Church of England School,,10052832,70055,295,,school,Carnation Road,,,Kent,Strood,ME2 2SX,51.4279527,0.3608746,2025
Saint John Southworth Enterprise and Research Alliance,,10049304,141931,15O,,school,The Cardinal Vaughan Memorial School,89 Addison Road,,,London,W14 8BZ,51.503966,-0.2116333,2025
Salford Alliance of Learning Schools,,10077015,105910,2F8,,school,Salford Alliance of Learning Schools,Holdsworth Street,,Greater Manchester,Swinton,M27 0LN,53.5078961,-2.3500247,2025
Saltaire Primary Teacher Training,,10078397,107270,2X8,,school,Albert Rd,,,West Yorkshire,"Saltaire, Shipley",BD18 4NR,53.838563,-1.7903891,2025
Samuel Pepys School,,10017555,110951,1CB,,school,Samuel Pepys School,Cromwell Road,,Cambridgeshire,St Neots,PE19 2EZ,52.2241027,-0.2564082,2025
Saracens Bell Lane,,10093900,150355,T35,,school,Bell Lane,Hendon,,Barnet,London,NW4 2AS,51.60297629999999,-0.2431378,2025
Scarborough Teaching Alliance,,10007149,121267,1YS,5736,scitt,Fieldstead Crescent,,,North Yorkshire,Scarborough,YO12 6TH,54.293515,-0.434594,2025
Scarborough TSA - Coast & Vale Learning Trust,,10007149,143288,ST8,,school,1 Ashburn Road,,,,Scarborough,YO11 2JW,54.27181239999999,-0.4132213,2025
SCITT in East London Schools (SCITTELS),,10046003,,S17,5535,scitt,"SCITTELS, Colegrave Primary School",Henniker Road,,London,Stratford,E15 1JY,51.548543,0.001612,2025
SD at Turton,,10003957,105253,2BS,,school,Bromley Cross Road,Bromley Cross,,Lancashire,Bolton,BL7 9LT,53.6153859,-2.4112582,2025
SeleFirst@NorthEast Partners,,10078829,122242,16B,,school,The Sele,,,Northumberland,Hexham,NE46 3QZ,54.9727188,-2.1057547,2025
Services for Education,,10046628,,1WE,5617,scitt,Unit 3 Holt Court,Holt Street,,,Birmingham,B7 4AX,52.4866068,-1.8850956,2025
Severn Training and Schools Alliance,,10016969,123635,1B5,,school,Severn Training & Schools Alliance,Brookside Central,,"Telford, Shropshire, West Midlands",Brookside,TF3 1LP,52.6380366,-2.4671957,2025
Sharing Excellence Partnership Dunraven School Streatham,,10034534,137093,1BW,,school,94-98 Leigham Court Road,,,London,Streatham,SW16 2QB,51.4343111,-0.1216832,2025
Shaw Education Trust,,10060817,146635,5S3,,school,Kidsgrove Secondary School,Gloucester Road,Kidsgrove,Staffordshire,Stoke-on-Trent,ST7 4DL,53.0943623,-2.2328203,2025
Sheffield Hallam University,,10005790,133871,S21,1527,hei,City Campus,Pond Street,,South Yorkshire,Sheffield,S1 1WB,53.3781046,-1.4665227,2025
Shepway Teacher Training,,10073318,118505,1NG,,school,Sandgate Primary School,Coolinge Lane,,Kent,Folkestone,CT20 3QU,51.079905,1.1516943,2025
Sherborne Area Schools Trust,,10059883,138471,18M,,school,The Gryphon School,Bristol Road,,Dorset,Sherborne,DT9 4EQ,50.9587908,-2.5142045,2025
Sheringham Community Primary School Partnership,,10072540,120851,1A5,,school,Cooper Road,Off Holway Road,,Norfolk,Sheringham,NR26 8UH,52.9350151,1.2016833,2025
Sheringham High School,,10004772,70287,8H6,,school,"Norfolk Teacher Training Centre ","City College Norwich, Ipswich Road ",,Norfolk,Norwich,NR2 2LJ,52.6178124,1.2871217,2025
Shires Teaching Alliance,,10058699,136786,2EB,,school,Crooks Lane,,,Warwickshire,Studley,B80 7QX,52.2690755,-1.8984383,2025
Shropshire Primary Partnership,,10007848,145790,2AN,,school,Shropshire Primary Partnership,"Unit 6 The Courtyard,","Yeomanry Road Battlefield Enterprise Park, ",Shropshire,Shrewsbury,SY1 3EH,52.7459141,-2.7426051,2025
Slough ITE Partnership,,10033213,136521,7D6,,school,TSH Berkshire - Langley Grammar School,Reddington Drive,,Berkshire,Langley,SL3 7QS,51.5002038,-0.5543541,2025
Somerset SCITT Consortium,,10005959,,S31,5538,scitt,Broughton House,Blackbrook Park Avenue,,Somerset,Taunton,TA1 2PX,51.0139743,-3.0692804,2025
Somerset SCITT - Oak Partnership,,10005959,70066,5S2,,school,"SCIL Broughton House ",Blackbrook Park Avenue,Taunton,Somerset,Taunton,TA1 2PX,51.0139743,-3.0692804,2025
Southam Teaching Alliance,,10062422,143905,2BN,,school,Southam College,Welsh Road West,,Warwickshire,Southam,CV47 0JW,52.2573141,-1.3939976,2025
South Birmingham SCITT,,10058342,,N32,5611,scitt,South Birmingham SCITT,Solihull Sixth Form College,,Solihull,Widney Manor Road,B91 3WR,52.4057217,-1.7728004,2025
South Cumbria ITT,,10058677,135940,2KS,,school,Furness Academy,Park Drive,,Cumbria,Barrow-in-Furness,LA13 9BB,54.1176432,-3.2125662,2025
South Downs Teacher Training,,10045651,,2AZ,,scitt,Durrington High School,The Boulevard,,West Sussex,Worthing,BN13 1JX,50.8274754,-0.4076419,2025
South East Essex Academy Trust,,10058517,136490,2W2,,school,"Westcliff High School for Girls ",Kenilworth Gardens,,Essex,Westcliff-On-Sea,SS0 0BS,51.5525678,0.6677567,2025
South East Learning Alliance,,10037408,138178,1J1,,school,South East Learning Alliance,Riddlesdown Collegiate,,Surrey,South Croydon,CR8 1EX,51.3252338,-0.0888204,2025
Southend Initial Teacher Training,,10035498,137515,1AV,,school,Colchester Teacher Training,Colchester County High School,,Colchester,Norman Way,CO3 3US,51.8857277,0.8753857,2025
South of Tyne Primary Alliance,,10007159,144220,2JZ,,school,South of Tyne Primary Alliance,Well Bank Road,,Tyne and Wear,Washington,NE37 1NL,54.9176861,-1.5344825,2025
South West Teacher Training,,10060466,,7M7,,scitt,"Hatherleigh Rd, ",,,Devon,"Exeter ",EX2 9JU,50.7066479,-3.5399237,2025
Sparkenhoe Lead Partner Leicester,,10082990,146857,1RL,,school,Sparkenhoe Community Primary School,Saxby Street,,Leicester,Leicester,LE2 0TD,52.6300416,-1.1185262,2025
Sponne School,,10033021,136488,1PJ,,school,Brackley Road,Towcester,,Northants,Northampton,NN12 6DJ,52.1321304,-0.9936731,2025
Springboard,,10003861,131570,2HX,,school,Shire Oak CE Primary School,Wood Lane,,West Yorkshire,Leeds,LS6 2DT,53.8221988,-1.5740195,2025
Springwood High School,,10033204,136515,1U4,,school,Springwood High School,Queensway,,King's Lynn,Gaywood,PE30 4AW,52.7597511,0.4337293,2025
St Andrew's Alliance,,10068553,105933,2C7,,school,Vicars Hall Lane,Boothstown,,Manchester,Salford,M28 1HS,53.5010867,-2.4224377,2025
St Andrews CE Primary School,,10074731,100613,1VA,,school,Kay Road,,,,London,SW9 9DE,51.4679382,-0.1222418,2025
St. Andrew's Teaching Alliance,,10074236,123126,2DD,,school,Station Road,,,Oxon,Chinnor,OX39 4PU,51.7033445,-0.9099048999999999,2025
St Angela's Teacher Training Centre,,10006109,102786,1XC,,school,St Angela's Ursuline School,St George's Road,,London,Forest Gate,E7 8HU,51.54209789999999,0.028864,2025
St Anthony's Primary Learning Partnership,,10078651,108021,1Y9,,school,Barkly Road,Beeston,,West Yorkshire,Leeds,LS11 7JS,53.7715538,-1.562777,2025
St Barnabas Multi Academy Trust,,10060585,,5B7,,scitt,St Petroc's CofE Primary School,Athelstan Park,,Cornwall,Bodmin,PL31 1DS,50.4670257,-4.7150338,2025
"St Bede's Catholic Comprehensive School and Sixth Form College, Lanchester",,10037433,138172,1QB,,school,St Bede's Catholic School & Sixth Form College,Consett Road,,Co Durham,Lanchester,DH7 0RD,54.8283727,-1.7477169,2025
St Bernard's,,10037583,138329,29P,,school,St Bernard's Lead Partner of the Sheffield SCITT,St Bernard's Catholic High School,Herringthorpe Valley Road,South Yorkshire,Rotherham,S65 3BE,53.423868,-1.323461,2025
St. Bernard's Catholic Grammar School,,10006128,110084,2Y9,,school,St. Bernard's Catholic Grammar School,1 Langley Road,,Berkshire,Slough,SL3 7AF,51.50572529999999,-0.5735307,2025
St Edmund's Nursery School & Children's Centre,,10047807,107190,1EN,,school,St. Edmund's Nursery School & CC,Washington Street,,Bradford,Girlington,BD8 9QW,53.8024845,-1.7891624,2025
St. Edward's Teacher Training Partnership,,10079503,147335,1EG,,school,Green Street,,,London,Upton Park,E13 9AX,51.5326912,0.0372303,2025
Stepney All Saints Partnership,,10005863,100977,132,,school,"Stepney All Saints School and Sixth Form College ","Stepney Way ",,,London,E1 0RH,51.5165138,-0.0439252,2025
Stevenage Schools' Partnership,,10006765,117530,2C8,,school,The Nobel School,Mobbsbury Way,,Herts,Stevenage,SG2 0HS,51.9113108,-0.1678825,2025
St Francis & St Clare Catholic MAC,,10048946,141802,5F3,,school,c/o Our Lady & St Chad Catholic Academy,Fallings Lane,,,Wolverhampton,WV10 8BL,52.6111233,-2.1082324,2025
St George RC School,,10040659,139369,1NK,,school,St George's RC School,Lanark Road,,London,Maida Vale,W91RB,51.5328428,-0.1879878,2025
St. George's Academy Partnership,,10029212,,G15,,scitt,St George's Academy Partnership,Westgate,,Lincolnshire,Sleaford,NG34 7PP,53.0003025,-0.412111,2025
St Helens ONE - Grange Valley Primary,,10073116,104774,2KF,,school,Grange Valley Primary School,"Heyes Avenue, Haydock",,,St Helens,WA11 0XQ,53.4628543,-2.6698903,2025
St Ives Primary School,,10054993,142505,2BL,,school,St. Ives Primary & Nursery School,"Sandy Lane, St. Ives",,Hampshire,Ringwood,BH24 2LE,50.8381341,-1.8234596,2025
St James' Catholic High School,,10006183,101364,J2H,,school,Great Strand,Colindale,,,London,NW9 5PE,51.6009282,-0.2410666,2025
St John Bosco Catholic Academy,,10060532,,5L9,,scitt,c/o Bishop Milner Catholic College,Burton Road,,West Midlands,Dudley,DY1 3BY,52.519399,-2.1027179,2025
St John Bosco College,,10035180,,E13,,scitt,St John Bosco College,Parkham Street,Battersea,,London,SW11 3DQ,51.4750653,-0.1714743,2025
St John Bosco ITT,,10079439,103991,1S9,,school,Bishop Millner Catholic College,Burton Road,,West Midlands,Dudley,DY13BY,52.519399,-2.1027179,2025
St John Paul II Multi Academy Company,,10000722,103560,8T8,,school,Sacred Heart Catholic Primary School,Earlsbury Gardens,,,Birmingham,B20 3AE,52.5093525,-1.9008643,2025
"St John's Church of England First School, Wimborne",,10048991,113771,225,,school,Initio Learning Trust,c/o Allenbourn Middle School,,Dorset,Wimborne,BH21 1PL,50.7982284,-1.9787611,2025
St John's School and Sixth Form College,,10035670,137702,1W4,,school,St John's Catholic School & Sixth Form College,Woodhouse Lane,,Co. Durham,Bishop Auckland,DL14 6JT,54.6507143,-1.6913852,2025
St Joseph Catholic Multi Academy Trust,,10090107,,5S7,,scitt,Port of Liverpool Building,Pier Head,,,Liverpool,L3 1BY,53.4045748,-2.9971916,2025
St Joseph's College SCITT,,10032965,,1WJ,5608,scitt,St Joseph's College,London Road,,Stoke-on-Trent,Trent Vale,ST4 5NT,52.9879544,-2.1990396,2025
St Joseph's College SCITT (School Direct),,10032965,136460,1O2,,school,St Joseph's College,London Road,,Stoke-on-Trent,Trent Vale,ST4 5NT,52.9879544,-2.1990396,2025
St Mary and St Thomas Aquinas Primary School,,10090323,149052,2T1,,school,Stella Lane,Blaydon,Gateshead,Gateshead,Tyne and Wear,NE21 4NE,54.9696841,-1.7335666,2025
St Marylebone Collaborative,,10035059,137353,1ET,,school,64 Marylebone High Street,,,"Greater London ",London,W1U 5BA,51.52273,-0.152321,2025
St Mary's Bryanston Square,,10073999,101136,2E4,,school,Enford Street,,,,London,W1H 1DL,51.520345,-0.162591,2025
St Mary's Catholic School,,10043057,140081,2KN,,school,Benton Park Road,,,Tyne and Wear,Newcastle-upon-Tyne,NE7 7PE,55.0061847,-1.5937411,2025
St Mary's CofE Primary,,10071424,102139,3S2,,school,Church Lane,,,,London,N8 7BU,51.584625,-0.2285296,2025
"St Mary's University, Twickenham",,10007843,133895,S64,1530,hei,Waldegrave Road,"Strawberry Hill, Twickenham",,London,Richmond upon Thames,TW1 4SX,51.4362989,-0.3345,2025
St Michael's CE School Rowley Regis,,10017787,104019,3M3,,school,Curral Road,Rowley Regis,Sandwell,,Rowley Regis,B65 9AN,52.4844759,-2.0484024,2025
Stockton SCITT,,10006337,,S60,5607,scitt,Block B - The Education Centre at SSFC,Bishopton Road West,,Cleveland,Stockton-on-Tees,TS19 0QD,54.5705265,-1.3421895,2025
Stourport SCITT,,10058732,,S95,5634,scitt,Wyre Forest House,Fine Point Way,,Worcestershire,Kidderminster,DY11 7WF,52.35985,-2.269717,2025
"Stour Vale: Teacher Training Hub for the Black Country, South Staffs and Shropshire",,10059465,139872,1FA,,school,Stour Vale Teacher Training Hub,c/o Halesowen College,Whittingham Road,West Midlands,Halesowen,B63 3NA,52.4563729,-2.0525859,2025
St Paul's Caritas Christi,,10006246,103531,242,,school,Vernon Road,Edgbaston,,West Midlands,Birmingham,B16 9SL,52.47537149999999,-1.9395687,2025
St Peter's London Docks CofE Primary School,,10074014,100960,1V1,,school,Garnet Street,Wapping,,London,London,E1W 3QT,51.5061612,-0.05458089999999999,2025
St Peter's Solihull Teaching School Alliance,,10086770,104119,17Y,,school,St. Peter's Catholic School,,,West Midlands,Solihull,B91 3NZ,52.4058341,-1.7882931,2025
St Polycarp's Teacher Training,,10084196,147429,2EG,,school,St Polycarp's teacher training,Waverley Lane,,Surrey,Farnham,GU9 8BQ,51.2109624,-0.7880899,2025
Strive4 Academy Trust,,10066119,,6S2,,scitt,Ray Lodge Primary School,Snakes Lane East,,Essex,Woodford Green,IG8 7JQ,51.6064225,0.0430455,2025
St Thomas Catholic Academies Trust,,10060998,143803,3G3,,school,St Joseph's Catholic High School,Shaggy Calf lane,,Berkshire,Slough,SL2 5HW,51.5192965,-0.5863449,2025
